{
  "type": "FeatureCollection",
  "features": [
    {
      "type": "Feature",
      "properties": {
        "weight": 1.0,
        "id": 2350317084,
        "hasDetails": true,
        "name": "Monkey Loft",
        "amenity": "nightclub",
        "address": "1st Avenue South 2915, Seattle",
        "opening_hours": "Th 20:00-03:00; Fr-Sa 20:00-04:00"
      },
      "geometry": {
        "type": "Point",
        "coordinates": [
          -122.334466,
          47.5771889
        ]
      }
    },
    {
      "type": "Feature",
      "properties": {
        "weight": 1.0,
        "id": 2351345516,
        "hasDetails": true,
        "name": "Showbox SoDo",
        "amenity": "nightclub",
        "address": "1st Avenue South 1700, Seattle",
        "website": "https://www.showboxpresents.com/",
        "wikidata": "Q7503150",
        "wikipedia": "en:The Showbox"
      },
      "geometry": {
        "type": "Point",
        "coordinates": [
          -122.333928,
          47.5880461
        ]
      }
    },
    {
      "type": "Feature",
      "properties": {
        "weight": 1.0
      },
      "geometry": {
        "type": "Point",
        "coordinates": [
          -122.3175241,
          47.5917126
        ]
      }
    },
    {
      "type": "Feature",
      "properties": {
        "weight": 1.0
      },
      "geometry": {
        "type": "Point",
        "coordinates": [
          -122.3329041,
          47.593154
        ]
      }
    },
    {
      "type": "Feature",
      "properties": {
        "weight": 1.0
      },
      "geometry": {
        "type": "Point",
        "coordinates": [
          -122.3321758,
          47.5932956
        ]
      }
    },
    {
      "type": "Feature",
      "properties": {
        "weight": 1.0,
        "id": 6467175704,
        "hasDetails": true,
        "name": "Art at King Street Station",
        "amenity": "arts_centre",
        "opening_hours": "Mo-Tu,Su off; We-Sa 11:00-17:00"
      },
      "geometry": {
        "type": "Point",
        "coordinates": [
          -122.3299134,
          47.598301
        ]
      }
    },
    {
      "type": "Feature",
      "properties": {
        "weight": 1.0,
        "id": 2434527165,
        "hasDetails": true,
        "name": "Theater Off Jackson",
        "amenity": "theatre",
        "address": "7th Avenue South 409, Seattle"
      },
      "geometry": {
        "type": "Point",
        "coordinates": [
          -122.3239381,
          47.5988546
        ]
      }
    },
    {
      "type": "Feature",
      "properties": {
        "weight": 1.0,
        "id": 2351711797,
        "hasDetails": true,
        "name": "Antipode Gallery",
        "amenity": "nightclub",
        "address": "South Main Street 103, Seattle"
      },
      "geometry": {
        "type": "Point",
        "coordinates": [
          -122.3338924,
          47.5999358
        ]
      }
    },
    {
      "type": "Feature",
      "properties": {
        "weight": 1.0,
        "id": 228732858,
        "hasDetails": true,
        "name": "Pratt Fine Arts Center",
        "amenity": "arts_centre",
        "website": "https://www.pratt.org/"
      },
      "geometry": {
        "type": "Point",
        "coordinates": [
          -122.3073332,
          47.600295
        ]
      }
    },
    {
      "type": "Feature",
      "properties": {
        "weight": 1.0,
        "id": 1398969694,
        "hasDetails": true,
        "name": "Chapel Lounge",
        "amenity": "nightclub",
        "address": "1st Avenue South 213, Seattle"
      },
      "geometry": {
        "type": "Point",
        "coordinates": [
          -122.3343945,
          47.6003478
        ]
      }
    },
    {
      "type": "Feature",
      "properties": {
        "weight": 1.0,
        "id": 366028846,
        "hasDetails": true,
        "name": "Nippon Kan Theater",
        "amenity": "theatre",
        "wikidata": "Q7039629"
      },
      "geometry": {
        "type": "Point",
        "coordinates": [
          -122.3253542,
          47.6009837
        ]
      }
    },
    {
      "type": "Feature",
      "properties": {
        "weight": 1.0,
        "id": 2351695524,
        "hasDetails": true,
        "name": "OHM",
        "amenity": "nightclub",
        "address": "South Washington Street 172, Seattle",
        "website": "https://ohmseattle.com/",
        "opening_hours": "Fr-Sa 21:00-02:00"
      },
      "geometry": {
        "type": "Point",
        "coordinates": [
          -122.3318762,
          47.6010087
        ]
      }
    },
    {
      "type": "Feature",
      "properties": {
        "weight": 1.0
      },
      "geometry": {
        "type": "Point",
        "coordinates": [
          -122.304014,
          47.6011269
        ]
      }
    },
    {
      "type": "Feature",
      "properties": {
        "weight": 1.0,
        "id": 161077145,
        "hasDetails": true,
        "name": "Langston Hughes Performing Arts Center",
        "amenity": "arts_centre",
        "address": "17th Avenue South 104",
        "website": "https://www.seattle.gov/parks/centers/langston.htm",
        "wikidata": "Q6486519"
      },
      "geometry": {
        "type": "Point",
        "coordinates": [
          -122.3098499,
          47.601297
        ]
      }
    },
    {
      "type": "Feature",
      "properties": {
        "weight": 1.0,
        "id": 2351711778,
        "hasDetails": true,
        "name": "4Culture",
        "amenity": "arts_centre",
        "address": "Prefontaine Place South 101, Seattle",
        "website": "https://www.4culture.org/"
      },
      "geometry": {
        "type": "Point",
        "coordinates": [
          -122.330062,
          47.6014352
        ]
      }
    },
    {
      "type": "Feature",
      "properties": {
        "weight": 1.0
      },
      "geometry": {
        "type": "Point",
        "coordinates": [
          -122.3333473,
          47.6016022
        ]
      }
    },
    {
      "type": "Feature",
      "properties": {
        "weight": 1.0,
        "id": 228779142,
        "hasDetails": true,
        "name": "Quincy Jones Performance Center",
        "amenity": "arts_centre",
        "address": "23rd Avenue 428, Seattle"
      },
      "geometry": {
        "type": "Point",
        "coordinates": [
          -122.3012897,
          47.6060241
        ]
      }
    },
    {
      "type": "Feature",
      "properties": {
        "weight": 1.0,
        "id": 69273374,
        "hasDetails": true,
        "name": "Benaroya Hall",
        "amenity": "theatre",
        "address": "University Street 200, Seattle",
        "website": "https://www.seattlesymphony.org/benaroyahall",
        "wikidata": "Q3892069",
        "wikipedia": "en:Benaroya Hall"
      },
      "geometry": {
        "type": "Point",
        "coordinates": [
          -122.3370106,
          47.6081173
        ]
      }
    },
    {
      "type": "Feature",
      "properties": {
        "weight": 1.0,
        "id": 4322193327,
        "hasDetails": true,
        "name": "Coyote Central",
        "amenity": "arts_centre",
        "address": "East Cherry Street 2300, Seattle",
        "website": "https://coyotecentral.org"
      },
      "geometry": {
        "type": "Point",
        "coordinates": [
          -122.3025564,
          47.6081448
        ]
      }
    },
    {
      "type": "Feature",
      "properties": {
        "weight": 1.0,
        "id": 2397493563,
        "hasDetails": true,
        "name": "Market Theater",
        "amenity": "theatre",
        "address": "Post Alley 1428, Seattle",
        "website": "https://unexpectedproductions.org/",
        "wikidata": "Q43305863"
      },
      "geometry": {
        "type": "Point",
        "coordinates": [
          -122.340263,
          47.608338
        ]
      }
    },
    {
      "type": "Feature",
      "properties": {
        "weight": 1.0,
        "id": 2397493611,
        "hasDetails": true,
        "name": "Showbox at the Market",
        "amenity": "theatre",
        "address": "1st Avenue 1426, Seattle",
        "website": "http://www.showboxonline.com/index.php",
        "wikidata": "Q7503150",
        "wikipedia": "en:The Showbox"
      },
      "geometry": {
        "type": "Point",
        "coordinates": [
          -122.3394726,
          47.6085136
        ]
      }
    },
    {
      "type": "Feature",
      "properties": {
        "weight": 1.0,
        "id": 2404249354,
        "hasDetails": true,
        "name": "The Triple Door",
        "amenity": "theatre",
        "address": "Union Street 216, Seattle",
        "website": "https://thetripledoor.net/",
        "wikidata": "Q7770255"
      },
      "geometry": {
        "type": "Point",
        "coordinates": [
          -122.337685,
          47.6086439
        ]
      }
    },
    {
      "type": "Feature",
      "properties": {
        "weight": 1.0,
        "id": 2404244806,
        "hasDetails": true,
        "name": "5th Avenue Theater",
        "amenity": "theatre",
        "address": "5th Avenue 1308, Seattle",
        "website": "https://www.5thavenue.org/",
        "wikidata": "Q386819"
      },
      "geometry": {
        "type": "Point",
        "coordinates": [
          -122.3339845,
          47.609168
        ]
      }
    },
    {
      "type": "Feature",
      "properties": {
        "weight": 1.0,
        "id": 118107151,
        "hasDetails": true,
        "name": "Lee Center for the Arts",
        "amenity": "arts_centre",
        "address": "12th Avenue 901, Seattle"
      },
      "geometry": {
        "type": "Point",
        "coordinates": [
          -122.3171374,
          47.6106951
        ]
      }
    },
    {
      "type": "Feature",
      "properties": {
        "weight": 1.0,
        "id": 2404211190,
        "hasDetails": true,
        "name": "ACT Theatre",
        "amenity": "theatre",
        "address": "Union Street 700, Seattle",
        "wikidata": "Q4650897"
      },
      "geometry": {
        "type": "Point",
        "coordinates": [
          -122.3323262,
          47.6108495
        ]
      }
    },
    {
      "type": "Feature",
      "properties": {
        "weight": 1.0,
        "id": 2079419115,
        "hasDetails": true,
        "name": "Regal Meridian 16",
        "amenity": "cinema",
        "wikidata": "Q43306716"
      },
      "geometry": {
        "type": "Point",
        "coordinates": [
          -122.333699,
          47.6116884
        ]
      }
    },
    {
      "type": "Feature",
      "properties": {
        "weight": 1.0,
        "id": 1999270661,
        "hasDetails": true,
        "name": "Moore Theater",
        "amenity": "theatre",
        "wikidata": "Q6908241"
      },
      "geometry": {
        "type": "Point",
        "coordinates": [
          -122.3414253,
          47.6117307
        ]
      }
    },
    {
      "type": "Feature",
      "properties": {
        "weight": 1.0,
        "id": 2330280324,
        "hasDetails": true,
        "name": "Arts Aloft",
        "amenity": "arts_centre",
        "address": "East Spring Street 3302, Seattle"
      },
      "geometry": {
        "type": "Point",
        "coordinates": [
          -122.2902164,
          47.6117718
        ]
      }
    },
    {
      "type": "Feature",
      "properties": {
        "weight": 1.0,
        "id": 2873793201,
        "hasDetails": true,
        "name": "Cannonball Arts",
        "amenity": "arts_centre",
        "address": "3rd Avenue 1930, Seattle"
      },
      "geometry": {
        "type": "Point",
        "coordinates": [
          -122.340368,
          47.6124246
        ]
      }
    },
    {
      "type": "Feature",
      "properties": {
        "weight": 1.0,
        "id": 2327723393,
        "hasDetails": true,
        "name": "Common Area Maintenance",
        "amenity": "arts_centre",
        "address": "2nd Avenue 2125, Seattle",
        "website": "https://www.camseattle.org"
      },
      "geometry": {
        "type": "Point",
        "coordinates": [
          -122.3440538,
          47.6129014
        ]
      }
    },
    {
      "type": "Feature",
      "properties": {
        "weight": 1.0,
        "id": 2327723295,
        "hasDetails": true,
        "name": "Annex",
        "amenity": "nightclub",
        "address": "2nd Avenue 2118, Seattle"
      },
      "geometry": {
        "type": "Point",
        "coordinates": [
          -122.3434526,
          47.6129842
        ]
      }
    },
    {
      "type": "Feature",
      "properties": {
        "weight": 1.0,
        "id": 4281483341,
        "hasDetails": true,
        "name": "MadeSpace",
        "amenity": "arts_centre",
        "address": "East Union Street 2002, Seattle"
      },
      "geometry": {
        "type": "Point",
        "coordinates": [
          -122.3059989,
          47.6130561
        ]
      }
    },
    {
      "type": "Feature",
      "properties": {
        "weight": 1.0,
        "id": 2375132074,
        "hasDetails": true,
        "name": "Seattle Open Arts Place",
        "amenity": "theatre",
        "address": "18th Avenue 1406, Seattle",
        "website": "https://www.seattleopenartsplace.org/"
      },
      "geometry": {
        "type": "Point",
        "coordinates": [
          -122.308688,
          47.6131305
        ]
      }
    },
    {
      "type": "Feature",
      "properties": {
        "weight": 1.0,
        "id": 4326512461,
        "hasDetails": true,
        "name": "AMC Pacific Place 11",
        "amenity": "cinema",
        "address": "Pine Street 600, Seattle",
        "website": "https://www.amctheatres.com/movie-theatres/seattle-tacoma/amc-pacific-place-11",
        "wikidata": "Q43306509"
      },
      "geometry": {
        "type": "Point",
        "coordinates": [
          -122.335533,
          47.6131477
        ]
      }
    },
    {
      "type": "Feature",
      "properties": {
        "weight": 1.0,
        "id": 1766895957,
        "hasDetails": true,
        "name": "Central Cinema",
        "amenity": "cinema",
        "address": "21st Avenue 1411",
        "website": "https://www.central-cinema.com/",
        "wikidata": "Q43306569"
      },
      "geometry": {
        "type": "Point",
        "coordinates": [
          -122.3051662,
          47.6132215
        ]
      }
    },
    {
      "type": "Feature",
      "properties": {
        "weight": 1.0,
        "id": 115042486,
        "hasDetails": true,
        "name": "Paramount Theatre",
        "amenity": "theatre",
        "address": "Pine Street 911, Seattle",
        "website": "https://www.stgpresents.org/stg-venues/paramount-theatre/",
        "wikidata": "Q3363536",
        "wikipedia": "en:Paramount Theatre (Seattle)"
      },
      "geometry": {
        "type": "Point",
        "coordinates": [
          -122.3313972,
          47.6132491
        ]
      }
    },
    {
      "type": "Feature",
      "properties": {
        "weight": 1.0,
        "id": 2375132082,
        "hasDetails": true,
        "name": "Gallery 1412",
        "amenity": "arts_centre",
        "address": "18th Avenue 1412, Seattle",
        "website": "https://gallery1412dotorg.wordpress.com/"
      },
      "geometry": {
        "type": "Point",
        "coordinates": [
          -122.308681,
          47.6133227
        ]
      }
    },
    {
      "type": "Feature",
      "properties": {
        "weight": 1.0
      },
      "geometry": {
        "type": "Point",
        "coordinates": [
          -122.3174426,
          47.6136125
        ]
      }
    },
    {
      "type": "Feature",
      "properties": {
        "weight": 1.0,
        "id": 4243740290,
        "hasDetails": true,
        "name": "Club Z",
        "amenity": "nightclub",
        "address": "Pike Street 1117"
      },
      "geometry": {
        "type": "Point",
        "coordinates": [
          -122.3280614,
          47.6136346
        ]
      }
    },
    {
      "type": "Feature",
      "properties": {
        "weight": 1.0,
        "id": 2159323003,
        "hasDetails": true,
        "name": "Q Nightclub",
        "amenity": "nightclub",
        "address": "Broadway 1426, Seattle",
        "website": "https://qnightclub.com/"
      },
      "geometry": {
        "type": "Point",
        "coordinates": [
          -122.3203363,
          47.613746
        ]
      }
    },
    {
      "type": "Feature",
      "properties": {
        "weight": 1.0,
        "id": 11177907381,
        "hasDetails": true,
        "name": "Barboza",
        "amenity": "nightclub",
        "address": "East Pike Street 925, Seattle",
        "website": "https://www.thebarboza.com/"
      },
      "geometry": {
        "type": "Point",
        "coordinates": [
          -122.3196284,
          47.6138274
        ]
      }
    },
    {
      "type": "Feature",
      "properties": {
        "weight": 1.0,
        "id": 12121436845,
        "hasDetails": true,
        "name": "Black Arts Love",
        "amenity": "arts_centre",
        "address": "East Pike Street 417"
      },
      "geometry": {
        "type": "Point",
        "coordinates": [
          -122.3259433,
          47.6139221
        ]
      }
    },
    {
      "type": "Feature",
      "properties": {
        "weight": 1.0,
        "id": 1194791180,
        "hasDetails": true,
        "name": "Neumos",
        "amenity": "nightclub",
        "address": "East Pike Street 925, Seattle",
        "website": "https://www.neumos.com"
      },
      "geometry": {
        "type": "Point",
        "coordinates": [
          -122.3196108,
          47.613954
        ]
      }
    },
    {
      "type": "Feature",
      "properties": {
        "weight": 1.0,
        "id": 9997743299,
        "hasDetails": true,
        "name": "Belltown Yacht Club",
        "amenity": "nightclub",
        "address": "1st Avenue 2320, Seattle",
        "website": "https://screwdriverbar.com/byc"
      },
      "geometry": {
        "type": "Point",
        "coordinates": [
          -122.3468379,
          47.6140747
        ]
      }
    },
    {
      "type": "Feature",
      "properties": {
        "weight": 1.0,
        "id": 2327663083,
        "hasDetails": true,
        "name": "Ora",
        "amenity": "nightclub",
        "address": "1st Avenue 2332, Seattle"
      },
      "geometry": {
        "type": "Point",
        "coordinates": [
          -122.3474762,
          47.6141416
        ]
      }
    },
    {
      "type": "Feature",
      "properties": {
        "weight": 1.0,
        "id": 360389738,
        "hasDetails": true,
        "name": "SIFF Cinema Downtown",
        "amenity": "cinema",
        "address": "4th Avenue 2100, Seattle",
        "wikidata": "Q7442077",
        "wikipedia": "en:SIFF Cinema Downtown"
      },
      "geometry": {
        "type": "Point",
        "coordinates": [
          -122.3413501,
          47.6142013
        ]
      }
    },
    {
      "type": "Feature",
      "properties": {
        "weight": 1.0,
        "id": 1127248835,
        "hasDetails": true,
        "name": "Cultura",
        "amenity": "nightclub",
        "address": "East Pike Street 916, Seattle",
        "website": "https://culturaseattle.com/"
      },
      "geometry": {
        "type": "Point",
        "coordinates": [
          -122.3199026,
          47.6142159
        ]
      }
    },
    {
      "type": "Feature",
      "properties": {
        "weight": 1.0,
        "id": 2158760753,
        "hasDetails": true,
        "name": "Annex Theater",
        "amenity": "theatre",
        "address": "East Pike Street 1100, Seattle",
        "website": "https://www.annextheatre.org/"
      },
      "geometry": {
        "type": "Point",
        "coordinates": [
          -122.3179741,
          47.6143087
        ]
      }
    },
    {
      "type": "Feature",
      "properties": {
        "weight": 1.0,
        "id": 1244813813,
        "hasDetails": true,
        "name": "Northwest Film Forum",
        "amenity": "arts_centre",
        "address": "12th Avenue 1515, Seattle",
        "website": "https://nwfilmforum.org",
        "wikidata": "Q43305852"
      },
      "geometry": {
        "type": "Point",
        "coordinates": [
          -122.317071,
          47.6144138
        ]
      }
    },
    {
      "type": "Feature",
      "properties": {
        "weight": 1.0,
        "id": 2968389933,
        "hasDetails": true,
        "name": "The Crocodile",
        "amenity": "nightclub",
        "address": "1st Avenue 2505, Seattle",
        "website": "https://www.thecrocodile.com/",
        "wikidata": "Q5187381"
      },
      "geometry": {
        "type": "Point",
        "coordinates": [
          -122.3490734,
          47.6146474
        ]
      }
    },
    {
      "type": "Feature",
      "properties": {
        "weight": 1.0,
        "id": 675018019,
        "hasDetails": true,
        "name": "Erickson Theatre on Broadway",
        "amenity": "theatre",
        "address": "Harvard Avenue 1524, Seattle"
      },
      "geometry": {
        "type": "Point",
        "coordinates": [
          -122.3217419,
          47.614672
        ]
      }
    },
    {
      "type": "Feature",
      "properties": {
        "weight": 1.0,
        "id": 2327659395,
        "hasDetails": true,
        "name": "Vue",
        "amenity": "nightclub",
        "address": "2nd Avenue 2324, Seattle"
      },
      "geometry": {
        "type": "Point",
        "coordinates": [
          -122.3463704,
          47.6146943
        ]
      }
    },
    {
      "type": "Feature",
      "properties": {
        "weight": 1.0,
        "id": 2158768604,
        "hasDetails": true,
        "name": "Vice",
        "amenity": "nightclub",
        "address": "Minor Avenue 1532, Seattle",
        "website": "https://www.viceseattle.com"
      },
      "geometry": {
        "type": "Point",
        "coordinates": [
          -122.3284395,
          47.6147343
        ]
      }
    },
    {
      "type": "Feature",
      "properties": {
        "weight": 1.0,
        "id": 2158761250,
        "hasDetails": true,
        "name": "queer/bar",
        "amenity": "nightclub",
        "address": "11th Avenue 1520, Seattle",
        "wikidata": "Q65074307"
      },
      "geometry": {
        "type": "Point",
        "coordinates": [
          -122.3179499,
          47.6147799
        ]
      }
    },
    {
      "type": "Feature",
      "properties": {
        "weight": 1.0,
        "id": 2327732103,
        "hasDetails": true,
        "name": "Dimitriou's Jazz Alley",
        "amenity": "theatre",
        "address": "6th Avenue 2033, Seattle",
        "website": "http://www.jazzalley.com/"
      },
      "geometry": {
        "type": "Point",
        "coordinates": [
          -122.339691,
          47.6148163
        ]
      }
    },
    {
      "type": "Feature",
      "properties": {
        "weight": 1.0,
        "id": 206623630,
        "hasDetails": true,
        "name": "The Cuff Complex",
        "amenity": "nightclub",
        "address": "13th Avenue 1533, Seattle",
        "website": "https://www.cuffcomplex.com/",
        "wikidata": "Q22022273"
      },
      "geometry": {
        "type": "Point",
        "coordinates": [
          -122.3159465,
          47.6150199
        ]
      }
    },
    {
      "type": "Feature",
      "properties": {
        "weight": 1.0,
        "id": 2327614692,
        "hasDetails": true,
        "name": "Common Objects",
        "amenity": "arts_centre",
        "address": "1st Avenue 2601, Seattle",
        "website": "https://camseattle.org",
        "opening_hours": "24/7"
      },
      "geometry": {
        "type": "Point",
        "coordinates": [
          -122.3499757,
          47.6152339
        ]
      }
    },
    {
      "type": "Feature",
      "properties": {
        "weight": 1.0,
        "id": 2158761323,
        "hasDetails": true,
        "name": "12th Ave Arts",
        "amenity": "arts_centre",
        "address": "12th Avenue 1620, Seattle",
        "website": "http://12avearts.org/"
      },
      "geometry": {
        "type": "Point",
        "coordinates": [
          -122.31667,
          47.6157219
        ]
      }
    },
    {
      "type": "Feature",
      "properties": {
        "weight": 1.0,
        "id": 137775893,
        "hasDetails": true,
        "name": "Broadway Performance Hall",
        "amenity": "theatre",
        "address": "Broadway 1625, Seattle"
      },
      "geometry": {
        "type": "Point",
        "coordinates": [
          -122.3218604,
          47.6158153
        ]
      }
    },
    {
      "type": "Feature",
      "properties": {
        "weight": 1.0,
        "id": 9657301875,
        "hasDetails": true,
        "name": "Hugo House",
        "amenity": "arts_centre",
        "address": "11th Avenue 1634, Seattle",
        "website": "https://hugohouse.org/",
        "wikidata": "Q7326592",
        "wikipedia": "en:Hugo House"
      },
      "geometry": {
        "type": "Point",
        "coordinates": [
          -122.317993,
          47.6161894
        ]
      }
    },
    {
      "type": "Feature",
      "properties": {
        "weight": 1.0
      },
      "geometry": {
        "type": "Point",
        "coordinates": [
          -122.354731,
          47.6167029
        ]
      }
    },
    {
      "type": "Feature",
      "properties": {
        "weight": 1.0,
        "id": 10121400584,
        "hasDetails": true,
        "name": "Kremwerk",
        "amenity": "nightclub",
        "address": "Minor Avenue 1809, Seattle",
        "names": [
          "Kremwerk",
          "Timbre Room",
          "Cherry Seattle"
        ]
      },
      "geometry": {
        "type": "Point",
        "coordinates": [
          -122.3311153,
          47.6168989
        ]
      }
    },
    {
      "type": "Feature",
      "properties": {
        "weight": 1.0,
        "id": 223928481,
        "hasDetails": true,
        "name": "Raisbeck Performance Hall",
        "amenity": "arts_centre",
        "address": "Boren Avenue 2015, Seattle"
      },
      "geometry": {
        "type": "Point",
        "coordinates": [
          -122.3348236,
          47.6178546
        ]
      }
    },
    {
      "type": "Feature",
      "properties": {
        "weight": 1.0,
        "id": 818597264,
        "hasDetails": true,
        "name": "El Coraz\u00f3n",
        "amenity": "nightclub",
        "address": "Eastlake Avenue East 109, Seattle",
        "website": "https://www.elcorazonseattle.com/"
      },
      "geometry": {
        "type": "Point",
        "coordinates": [
          -122.3293154,
          47.6187293
        ]
      }
    },
    {
      "type": "Feature",
      "properties": {
        "weight": 1.0,
        "id": 12920304382,
        "hasDetails": true,
        "name": "Funhouse",
        "amenity": "nightclub",
        "address": "Eastlake Avenue East 109, Seattle",
        "website": "http://www.TheFunhouseSeattle.com"
      },
      "geometry": {
        "type": "Point",
        "coordinates": [
          -122.3293152,
          47.6188871
        ]
      }
    },
    {
      "type": "Feature",
      "properties": {
        "weight": 1.0
      },
      "geometry": {
        "type": "Point",
        "coordinates": [
          -122.3519279,
          47.6190932
        ]
      }
    },
    {
      "type": "Feature",
      "properties": {
        "weight": 1.0,
        "id": 2660798982,
        "hasDetails": true,
        "name": "PACCAR IMAX Theater",
        "amenity": "cinema",
        "website": "https://pacificsciencecenter.org/visit/imax/"
      },
      "geometry": {
        "type": "Point",
        "coordinates": [
          -122.3520731,
          47.6196814
        ]
      }
    },
    {
      "type": "Feature",
      "properties": {
        "weight": 1.0
      },
      "geometry": {
        "type": "Point",
        "coordinates": [
          -122.3505323,
          47.6197829
        ]
      }
    },
    {
      "type": "Feature",
      "properties": {
        "weight": 1.0,
        "id": 2158750656,
        "hasDetails": true,
        "name": "Emerald City Comedy Club",
        "amenity": "theatre",
        "address": "Broadway East 210, Seattle",
        "website": "https://comedyslashbar.com"
      },
      "geometry": {
        "type": "Point",
        "coordinates": [
          -122.3206717,
          47.6202379
        ]
      }
    },
    {
      "type": "Feature",
      "properties": {
        "weight": 1.0
      },
      "geometry": {
        "type": "Point",
        "coordinates": [
          -122.3507709,
          47.6204674
        ]
      }
    },
    {
      "type": "Feature",
      "properties": {
        "weight": 1.0,
        "id": 56817917,
        "hasDetails": true,
        "name": "Seattle Children's Theater",
        "amenity": "theatre",
        "address": "Thomas Street 201, Seattle",
        "website": "https://www.sct.org/",
        "opening_hours": "Tu-Su 10:00-15:00; Th-Sa 10:00-18:00",
        "wikipedia": "en:Seattle Children's Theatre"
      },
      "geometry": {
        "type": "Point",
        "coordinates": [
          -122.3521903,
          47.6205012
        ]
      }
    },
    {
      "type": "Feature",
      "properties": {
        "weight": 1.0
      },
      "geometry": {
        "type": "Point",
        "coordinates": [
          -122.350661,
          47.6217265
        ]
      }
    },
    {
      "type": "Feature",
      "properties": {
        "weight": 1.0
      },
      "geometry": {
        "type": "Point",
        "coordinates": [
          -122.2868817,
          47.6227353
        ]
      }
    },
    {
      "type": "Feature",
      "properties": {
        "weight": 1.0,
        "id": 4846314979,
        "hasDetails": true,
        "name": "The Vera Project",
        "amenity": "theatre",
        "address": "Harrison Street 305, Seattle",
        "website": "https://theveraproject.org/",
        "wikidata": "Q7772198"
      },
      "geometry": {
        "type": "Point",
        "coordinates": [
          -122.3538774,
          47.6230993
        ]
      }
    },
    {
      "type": "Feature",
      "properties": {
        "weight": 1.0,
        "id": 2494550790,
        "hasDetails": true,
        "name": "SIFF Film Center",
        "amenity": "cinema",
        "address": "Harrison Street 305, Seattle",
        "website": "https://www.siff.net/year-round-cinema/cinema-venues/siff-film-center",
        "wikidata": "Q43306740"
      },
      "geometry": {
        "type": "Point",
        "coordinates": [
          -122.3531898,
          47.6231249
        ]
      }
    },
    {
      "type": "Feature",
      "properties": {
        "weight": 1.0,
        "id": 231761619,
        "hasDetails": true,
        "name": "SIFF Cinema Uptown",
        "amenity": "cinema",
        "address": "Queen Anne Avenue North 511, Seattle",
        "website": "https://www.siff.net/",
        "wikidata": "Q43306738"
      },
      "geometry": {
        "type": "Point",
        "coordinates": [
          -122.3571075,
          47.623536
        ]
      }
    },
    {
      "type": "Feature",
      "properties": {
        "weight": 1.0,
        "id": 5569944,
        "hasDetails": true,
        "name": "Cornish Playhouse",
        "amenity": "theatre",
        "address": "Mercer Street 201, Seattle"
      },
      "geometry": {
        "type": "Point",
        "coordinates": [
          -122.3524178,
          47.6239122
        ]
      }
    },
    {
      "type": "Feature",
      "properties": {
        "weight": 1.0,
        "id": 161070747,
        "hasDetails": true,
        "name": "Seattle Repertory Theatre",
        "amenity": "theatre",
        "address": "Mercer Street 155, Seattle",
        "website": "https://www.seattlerep.org/",
        "wikidata": "Q7442163",
        "wikipedia": "en:Seattle Repertory Theatre"
      },
      "geometry": {
        "type": "Point",
        "coordinates": [
          -122.3535923,
          47.6239252
        ]
      }
    },
    {
      "type": "Feature",
      "properties": {
        "weight": 1.0,
        "id": 161070746,
        "hasDetails": true,
        "name": "McCaw Hall",
        "amenity": "theatre",
        "address": "Mercer Street 321, Seattle",
        "wikidata": "Q11705574",
        "wikipedia": "en:McCaw Hall"
      },
      "geometry": {
        "type": "Point",
        "coordinates": [
          -122.3504085,
          47.6239567
        ]
      }
    },
    {
      "type": "Feature",
      "properties": {
        "weight": 1.0,
        "id": 56629825,
        "hasDetails": true,
        "name": "Seattle Opera at the Center",
        "amenity": "arts_centre",
        "address": "Mercer Street 363, Seattle",
        "website": "https://www.seattleopera.org/atthecenter/",
        "wikidata": "Q7442146",
        "wikipedia": "en:Seattle Opera"
      },
      "geometry": {
        "type": "Point",
        "coordinates": [
          -122.3494664,
          47.6239953
        ]
      }
    },
    {
      "type": "Feature",
      "properties": {
        "weight": 1.0,
        "id": 13585927401,
        "hasDetails": true,
        "name": "Path with Art",
        "amenity": "arts_centre",
        "address": "Mercer Street 200",
        "website": "https://www.pathwithart.org/contact-impact",
        "opening_hours": "Mo-Fr 13:00-17:00"
      },
      "geometry": {
        "type": "Point",
        "coordinates": [
          -122.3524612,
          47.6247545
        ]
      }
    },
    {
      "type": "Feature",
      "properties": {
        "weight": 1.0,
        "id": 2400858913,
        "hasDetails": true,
        "name": "On the Boards",
        "amenity": "theatre",
        "address": "West Roy Street 100, Seattle",
        "website": "https://www.ontheboards.org/"
      },
      "geometry": {
        "type": "Point",
        "coordinates": [
          -122.3581949,
          47.6258303
        ]
      }
    },
    {
      "type": "Feature",
      "properties": {
        "weight": 1.0
      },
      "geometry": {
        "type": "Point",
        "coordinates": [
          -122.3344308,
          47.6445764
        ]
      }
    }
  ]
}