{
  "type": "FeatureCollection",
  "features": [
    {
      "type": "Feature",
      "properties": {
        "weight": 1.0
      },
      "geometry": {
        "type": "Point",
        "coordinates": [
          13.5152084,
          52.3913036
        ]
      }
    },
    {
      "type": "Feature",
      "properties": {
        "weight": 1.0
      },
      "geometry": {
        "type": "Point",
        "coordinates": [
          13.2695324,
          52.3914263
        ]
      }
    },
    {
      "type": "Feature",
      "properties": {
        "weight": 1.0,
        "id": 13521166517,
        "hasDetails": true,
        "website": "https://www.motiv-wunsch.de/"
      },
      "geometry": {
        "type": "Point",
        "coordinates": [
          13.2218923,
          52.3922494
        ]
      }
    },
    {
      "type": "Feature",
      "properties": {
        "weight": 1.0,
        "id": 13521109649,
        "hasDetails": true,
        "website": "https://www.motiv-wunsch.de/"
      },
      "geometry": {
        "type": "Point",
        "coordinates": [
          13.2216798,
          52.3922868
        ]
      }
    },
    {
      "type": "Feature",
      "properties": {
        "weight": 1.0
      },
      "geometry": {
        "type": "Point",
        "coordinates": [
          13.2700728,
          52.3942474
        ]
      }
    },
    {
      "type": "Feature",
      "properties": {
        "weight": 1.0
      },
      "geometry": {
        "type": "Point",
        "coordinates": [
          13.2816843,
          52.3950565
        ]
      }
    },
    {
      "type": "Feature",
      "properties": {
        "weight": 1.0,
        "id": 12847340409,
        "hasDetails": true,
        "name": "Luftfahrtsymbol",
        "website": "https://bildhauerei-in-berlin.de/bildwerk/luftfahrtsymbol-6981/"
      },
      "geometry": {
        "type": "Point",
        "coordinates": [
          13.5345631,
          52.395263
        ]
      }
    },
    {
      "type": "Feature",
      "properties": {
        "weight": 1.0,
        "id": 422669870,
        "hasDetails": true,
        "name": "Historische Stra\u00dfenbahn",
        "website": "https://www.historische-strassenbahn-potsdam.de/",
        "opening_hours": "Sa-Su 13:00-18:00"
      },
      "geometry": {
        "type": "Point",
        "coordinates": [
          13.2084043,
          52.3954019
        ]
      }
    },
    {
      "type": "Feature",
      "properties": {
        "weight": 1.0,
        "id": 13333339606,
        "hasDetails": true,
        "wikidata": "Q137010775"
      },
      "geometry": {
        "type": "Point",
        "coordinates": [
          13.3747738,
          52.395879
        ]
      }
    },
    {
      "type": "Feature",
      "properties": {
        "weight": 1.0,
        "id": 288206998,
        "hasDetails": true,
        "name": "Alte Wache",
        "address": "Alt Gro\u00dfziethen 27, Sch\u00f6nefeld"
      },
      "geometry": {
        "type": "Point",
        "coordinates": [
          13.4477142,
          52.3959914
        ]
      }
    },
    {
      "type": "Feature",
      "properties": {
        "weight": 1.0
      },
      "geometry": {
        "type": "Point",
        "coordinates": [
          13.2773822,
          52.3966358
        ]
      }
    },
    {
      "type": "Feature",
      "properties": {
        "weight": 1.0
      },
      "geometry": {
        "type": "Point",
        "coordinates": [
          13.207686,
          52.3968098
        ]
      }
    },
    {
      "type": "Feature",
      "properties": {
        "weight": 1.0,
        "id": 149356024,
        "hasDetails": true,
        "name": "Die Br\u00fccke",
        "address": "Zehlendorfer Damm 200, Kleinmachnow",
        "website": "https://www.bruecke-kleinmachnow.de/"
      },
      "geometry": {
        "type": "Point",
        "coordinates": [
          13.2265226,
          52.396845
        ]
      }
    },
    {
      "type": "Feature",
      "properties": {
        "weight": 1.0
      },
      "geometry": {
        "type": "Point",
        "coordinates": [
          13.275268,
          52.3971132
        ]
      }
    },
    {
      "type": "Feature",
      "properties": {
        "weight": 1.0
      },
      "geometry": {
        "type": "Point",
        "coordinates": [
          13.4809727,
          52.3971134
        ]
      }
    },
    {
      "type": "Feature",
      "properties": {
        "weight": 1.0,
        "id": 13184656638,
        "hasDetails": true,
        "wikidata": "Q136407846"
      },
      "geometry": {
        "type": "Point",
        "coordinates": [
          13.4015882,
          52.3975036
        ]
      }
    },
    {
      "type": "Feature",
      "properties": {
        "weight": 1.0,
        "id": 13521184703,
        "hasDetails": true,
        "website": "https://www.motiv-wunsch.de/"
      },
      "geometry": {
        "type": "Point",
        "coordinates": [
          13.2075905,
          52.3975915
        ]
      }
    },
    {
      "type": "Feature",
      "properties": {
        "weight": 1.0,
        "id": 27118114,
        "hasDetails": true,
        "name": "Tiergarten Teltow",
        "address": "Kastanienstra\u00dfe 13-19, Teltow",
        "website": "https://tiergarten-teltow.de/",
        "opening_hours": "Tu-Su 10:00-17:00; May-Sep: Tu-Su 10:00-18:00",
        "wikidata": "Q71028343"
      },
      "geometry": {
        "type": "Point",
        "coordinates": [
          13.2870058,
          52.3978189
        ]
      }
    },
    {
      "type": "Feature",
      "properties": {
        "weight": 1.0,
        "id": 12847340408,
        "hasDetails": true,
        "name": "Drei Frauen",
        "website": "https://bildhauerei-in-berlin.de/bildwerk/drei-frauen-6979/"
      },
      "geometry": {
        "type": "Point",
        "coordinates": [
          13.5546437,
          52.3993471
        ]
      }
    },
    {
      "type": "Feature",
      "properties": {
        "weight": 1.0
      },
      "geometry": {
        "type": "Point",
        "coordinates": [
          13.6074672,
          52.3995645
        ]
      }
    },
    {
      "type": "Feature",
      "properties": {
        "weight": 1.0
      },
      "geometry": {
        "type": "Point",
        "coordinates": [
          13.3701961,
          52.4000499
        ]
      }
    },
    {
      "type": "Feature",
      "properties": {
        "weight": 1.0,
        "id": 8544547647,
        "hasDetails": true,
        "name": "Zicke",
        "wikidata": "Q123172829"
      },
      "geometry": {
        "type": "Point",
        "coordinates": [
          13.2659463,
          52.4016837
        ]
      }
    },
    {
      "type": "Feature",
      "properties": {
        "weight": 1.0
      },
      "geometry": {
        "type": "Point",
        "coordinates": [
          13.3669598,
          52.4017038
        ]
      }
    },
    {
      "type": "Feature",
      "properties": {
        "weight": 1.0,
        "id": 7550051060,
        "hasDetails": true,
        "name": "Kinetisches Tor",
        "website": "https://bildhauerei-in-berlin.de/bildwerk/windkinetische-plastik-6978/",
        "wikidata": "Q110421383"
      },
      "geometry": {
        "type": "Point",
        "coordinates": [
          13.5420428,
          52.4021309
        ]
      }
    },
    {
      "type": "Feature",
      "properties": {
        "weight": 1.0,
        "id": 13521556599,
        "hasDetails": true,
        "website": "https://www.motiv-wunsch.de/"
      },
      "geometry": {
        "type": "Point",
        "coordinates": [
          13.2256833,
          52.402146
        ]
      }
    },
    {
      "type": "Feature",
      "properties": {
        "weight": 1.0,
        "id": 93657835,
        "hasDetails": true,
        "name": "Heimatmuseum",
        "address": "Hoher Steinweg 13, Teltow",
        "website": "http://heimatverein.teltow.de/heimatmuseum-teltow-aeltestes-haus.html",
        "opening_hours": "Su 14:00-18:00",
        "wikidata": "Q76633291"
      },
      "geometry": {
        "type": "Point",
        "coordinates": [
          13.2613772,
          52.4022509
        ]
      }
    },
    {
      "type": "Feature",
      "properties": {
        "weight": 1.0,
        "id": 7550051059,
        "hasDetails": true,
        "name": "T\u00fcnnes und Sch\u00e4l",
        "website": "https://bildhauerei-in-berlin.de/bildwerk/tuennes-und-schael-6977/",
        "wikidata": "Q110219735"
      },
      "geometry": {
        "type": "Point",
        "coordinates": [
          13.5429467,
          52.4022896
        ]
      }
    },
    {
      "type": "Feature",
      "properties": {
        "weight": 1.0
      },
      "geometry": {
        "type": "Point",
        "coordinates": [
          13.5254062,
          52.4023228
        ]
      }
    },
    {
      "type": "Feature",
      "properties": {
        "weight": 1.0,
        "id": 183129657,
        "hasDetails": true,
        "name": "Atelier im Mattauschhaus",
        "address": "Alte Potsdamer Stra\u00dfe 5, Teltow",
        "website": "https://atelier-im-mattauschhaus.de/"
      },
      "geometry": {
        "type": "Point",
        "coordinates": [
          13.2604301,
          52.4023744
        ]
      }
    },
    {
      "type": "Feature",
      "properties": {
        "weight": 1.0
      },
      "geometry": {
        "type": "Point",
        "coordinates": [
          13.2166998,
          52.4026416
        ]
      }
    },
    {
      "type": "Feature",
      "properties": {
        "weight": 1.0
      },
      "geometry": {
        "type": "Point",
        "coordinates": [
          13.5424963,
          52.4033338
        ]
      }
    },
    {
      "type": "Feature",
      "properties": {
        "weight": 1.0
      },
      "geometry": {
        "type": "Point",
        "coordinates": [
          13.2161372,
          52.4036081
        ]
      }
    },
    {
      "type": "Feature",
      "properties": {
        "weight": 1.0
      },
      "geometry": {
        "type": "Point",
        "coordinates": [
          13.2181839,
          52.4045167
        ]
      }
    },
    {
      "type": "Feature",
      "properties": {
        "weight": 1.0
      },
      "geometry": {
        "type": "Point",
        "coordinates": [
          13.2159839,
          52.4048937
        ]
      }
    },
    {
      "type": "Feature",
      "properties": {
        "weight": 1.0
      },
      "geometry": {
        "type": "Point",
        "coordinates": [
          13.5461063,
          52.4051231
        ]
      }
    },
    {
      "type": "Feature",
      "properties": {
        "weight": 1.0
      },
      "geometry": {
        "type": "Point",
        "coordinates": [
          13.5727927,
          52.4060738
        ]
      }
    },
    {
      "type": "Feature",
      "properties": {
        "weight": 1.0
      },
      "geometry": {
        "type": "Point",
        "coordinates": [
          13.2247673,
          52.4061861
        ]
      }
    },
    {
      "type": "Feature",
      "properties": {
        "weight": 1.0
      },
      "geometry": {
        "type": "Point",
        "coordinates": [
          13.3603758,
          52.4063853
        ]
      }
    },
    {
      "type": "Feature",
      "properties": {
        "weight": 1.0
      },
      "geometry": {
        "type": "Point",
        "coordinates": [
          13.3021284,
          52.4085121
        ]
      }
    },
    {
      "type": "Feature",
      "properties": {
        "weight": 1.0,
        "id": 301107444,
        "hasDetails": true,
        "name": "Atelier Achim K\u00fchn",
        "address": "Richterstra\u00dfe 6, Berlin",
        "website": "http://achimkuehn.de/"
      },
      "geometry": {
        "type": "Point",
        "coordinates": [
          13.5713419,
          52.4097499
        ]
      }
    },
    {
      "type": "Feature",
      "properties": {
        "weight": 1.0
      },
      "geometry": {
        "type": "Point",
        "coordinates": [
          13.3623292,
          52.410278
        ]
      }
    },
    {
      "type": "Feature",
      "properties": {
        "weight": 1.0,
        "id": 13521284425,
        "hasDetails": true,
        "website": "https://www.motiv-wunsch.de/"
      },
      "geometry": {
        "type": "Point",
        "coordinates": [
          13.2236108,
          52.4104476
        ]
      }
    },
    {
      "type": "Feature",
      "properties": {
        "weight": 1.0,
        "id": 13521303837,
        "hasDetails": true,
        "website": "https://www.motiv-wunsch.de/"
      },
      "geometry": {
        "type": "Point",
        "coordinates": [
          13.2241112,
          52.4104944
        ]
      }
    },
    {
      "type": "Feature",
      "properties": {
        "weight": 1.0
      },
      "geometry": {
        "type": "Point",
        "coordinates": [
          13.623387,
          52.4111747
        ]
      }
    },
    {
      "type": "Feature",
      "properties": {
        "weight": 1.0,
        "id": 13347816186,
        "hasDetails": true,
        "wikidata": "Q137186990"
      },
      "geometry": {
        "type": "Point",
        "coordinates": [
          13.320497,
          52.411486
        ]
      }
    },
    {
      "type": "Feature",
      "properties": {
        "weight": 1.0,
        "id": 4210852779,
        "hasDetails": true,
        "name": "Wassersportmuseum",
        "address": "Regattastra\u00dfe 191, Berlin",
        "website": "https://www.museumsportal-berlin.de/de/museen/wassersportmuseum-gruenau/",
        "opening_hours": "We 10:00-16:00",
        "wikidata": "Q1551805"
      },
      "geometry": {
        "type": "Point",
        "coordinates": [
          13.5874462,
          52.4119793
        ]
      }
    },
    {
      "type": "Feature",
      "properties": {
        "weight": 1.0,
        "id": 33910270,
        "hasDetails": true,
        "name": "Schmetterlingshorst",
        "address": "Zum Schmetterlingshorst 2, Berlin",
        "website": "https://www.schmetterlingshorst.de/",
        "opening_hours": "Oct-Mar: Mo-Fr 11:00-16:00; Sa-Su 11:00-17:00; Apr-Sep: Mo-Fr 10:00-17:00; Sa-Su 10:00-19:00",
        "wikipedia": "de:Schmetterlingshorst"
      },
      "geometry": {
        "type": "Point",
        "coordinates": [
          13.6095015,
          52.4126005
        ]
      }
    },
    {
      "type": "Feature",
      "properties": {
        "weight": 1.0
      },
      "geometry": {
        "type": "Point",
        "coordinates": [
          13.5861692,
          52.4127657
        ]
      }
    },
    {
      "type": "Feature",
      "properties": {
        "weight": 1.0
      },
      "geometry": {
        "type": "Point",
        "coordinates": [
          13.5716826,
          52.4128574
        ]
      }
    },
    {
      "type": "Feature",
      "properties": {
        "weight": 1.0,
        "id": 138662865,
        "hasDetails": true,
        "name": "Museum",
        "address": "J\u00e4gerstieg 2, Kleinmachnow",
        "website": "https://museumsinitiative-kleinmachnow.de/",
        "wikidata": "Q759623",
        "wikipedia": "de:Auferstehungskirche (Kleinmachnow)"
      },
      "geometry": {
        "type": "Point",
        "coordinates": [
          13.2297562,
          52.4130689
        ]
      }
    },
    {
      "type": "Feature",
      "properties": {
        "weight": 1.0,
        "id": 7330257185,
        "hasDetails": true,
        "name": "Weiblicher Akt",
        "website": "https://bildhauerei-in-berlin.de/bildwerk/weiblicher-akt-10173/",
        "wikidata": "Q111507403"
      },
      "geometry": {
        "type": "Point",
        "coordinates": [
          13.5905103,
          52.4138852
        ]
      }
    },
    {
      "type": "Feature",
      "properties": {
        "weight": 1.0,
        "id": 178925642,
        "hasDetails": true,
        "name": "Lilienthal-Denkmal",
        "wikidata": "Q116608846",
        "names": [
          "Lilienthal-Denkmal",
          "Fliegeberg"
        ]
      },
      "geometry": {
        "type": "Point",
        "coordinates": [
          13.3289535,
          52.4141889
        ]
      }
    },
    {
      "type": "Feature",
      "properties": {
        "weight": 1.0
      },
      "geometry": {
        "type": "Point",
        "coordinates": [
          13.2959546,
          52.4150968
        ]
      }
    },
    {
      "type": "Feature",
      "properties": {
        "weight": 1.0
      },
      "geometry": {
        "type": "Point",
        "coordinates": [
          13.6003286,
          52.4153703
        ]
      }
    },
    {
      "type": "Feature",
      "properties": {
        "weight": 1.0
      },
      "geometry": {
        "type": "Point",
        "coordinates": [
          13.2957278,
          52.415372
        ]
      }
    },
    {
      "type": "Feature",
      "properties": {
        "weight": 1.0,
        "id": 4762786036,
        "hasDetails": true,
        "name": "Badende",
        "website": "https://bildhauerei-in-berlin.de/bildwerk/badende-7390/",
        "wikidata": "Q109814226"
      },
      "geometry": {
        "type": "Point",
        "coordinates": [
          13.5998064,
          52.4154014
        ]
      }
    },
    {
      "type": "Feature",
      "properties": {
        "weight": 1.0,
        "id": 13817236359,
        "hasDetails": true,
        "wikidata": "Q115768033"
      },
      "geometry": {
        "type": "Point",
        "coordinates": [
          13.2703429,
          52.4156735
        ]
      }
    },
    {
      "type": "Feature",
      "properties": {
        "weight": 1.0,
        "id": 12123927871,
        "hasDetails": true,
        "name": "Araberj\u00e4hrling",
        "wikidata": "Q117815104"
      },
      "geometry": {
        "type": "Point",
        "coordinates": [
          13.3140429,
          52.4161357
        ]
      }
    },
    {
      "type": "Feature",
      "properties": {
        "weight": 1.0,
        "id": 277991410,
        "hasDetails": true,
        "name": "M\u00fcggelturm",
        "website": "https://www.m\u00fcggelturm.berlin/",
        "opening_hours": "10:00-16:00",
        "wikidata": "Q895969",
        "wikipedia": "en:M\u00fcggelturm"
      },
      "geometry": {
        "type": "Point",
        "coordinates": [
          13.6250793,
          52.4172982
        ]
      }
    },
    {
      "type": "Feature",
      "properties": {
        "weight": 1.0,
        "id": 701057032,
        "hasDetails": true,
        "name": "Heimatmuseum Rudow",
        "address": "Alt-Rudow 60, Berlin",
        "website": "http://www.rudowerheimatverein.de",
        "opening_hours": "We,Sa,Su 10:00-16:00"
      },
      "geometry": {
        "type": "Point",
        "coordinates": [
          13.495073,
          52.417445
        ]
      }
    },
    {
      "type": "Feature",
      "properties": {
        "weight": 1.0
      },
      "geometry": {
        "type": "Point",
        "coordinates": [
          13.5822773,
          52.4175297
        ]
      }
    },
    {
      "type": "Feature",
      "properties": {
        "weight": 1.0
      },
      "geometry": {
        "type": "Point",
        "coordinates": [
          13.58252,
          52.417672
        ]
      }
    },
    {
      "type": "Feature",
      "properties": {
        "weight": 1.0,
        "id": 7550051062,
        "hasDetails": true,
        "name": "Sitzende",
        "website": "https://bildhauerei-in-berlin.de/bildwerk/sitzende-mit-aufgestuetztem-arm-6973/",
        "wikidata": "Q109971594"
      },
      "geometry": {
        "type": "Point",
        "coordinates": [
          13.5379243,
          52.4182585
        ]
      }
    },
    {
      "type": "Feature",
      "properties": {
        "weight": 1.0,
        "id": 129764630,
        "hasDetails": true,
        "name": "Dorfkirche Rudow",
        "amenity": "place_of_worship",
        "address": "K\u00f6penicker Stra\u00dfe 175, Berlin",
        "website": "https://www.kirche-rudow.de/",
        "wikidata": "Q1244671",
        "wikipedia": "de:Dorfkirche Rudow"
      },
      "geometry": {
        "type": "Point",
        "coordinates": [
          13.4975906,
          52.4183596
        ]
      }
    },
    {
      "type": "Feature",
      "properties": {
        "weight": 1.0,
        "id": 7550051058,
        "hasDetails": true,
        "name": "Zwei Schafe",
        "website": "https://bildhauerei-in-berlin.de/bildwerk/schafe-6972/",
        "wikidata": "Q115782013"
      },
      "geometry": {
        "type": "Point",
        "coordinates": [
          13.5406749,
          52.4184319
        ]
      }
    },
    {
      "type": "Feature",
      "properties": {
        "weight": 1.0,
        "id": 1069490670,
        "hasDetails": true,
        "name": "Berlin",
        "wikidata": "Q108497101",
        "wikipedia": "de:Berliner B\u00e4r (Berlin-Nikolassee)"
      },
      "geometry": {
        "type": "Point",
        "coordinates": [
          13.1964052,
          52.4186939
        ]
      }
    },
    {
      "type": "Feature",
      "properties": {
        "weight": 1.0,
        "id": 4197069045,
        "hasDetails": true,
        "name": "Sporttauchermuseum",
        "website": "https://www.tauchsportklub-adlershof.de/index.php/sporttauchermuseum",
        "opening_hours": "Th 17:00-20:00"
      },
      "geometry": {
        "type": "Point",
        "coordinates": [
          13.5877844,
          52.4192977
        ]
      }
    },
    {
      "type": "Feature",
      "properties": {
        "weight": 1.0,
        "id": 13200761677,
        "hasDetails": true,
        "name": "Araberj\u00e4hrling",
        "wikidata": "Q136450908"
      },
      "geometry": {
        "type": "Point",
        "coordinates": [
          13.4468114,
          52.4202314
        ]
      }
    },
    {
      "type": "Feature",
      "properties": {
        "weight": 1.0,
        "id": 355500002,
        "hasDetails": true,
        "name": "Erinnerungsst\u00e4tte Notaufnahmelager Marienfelde",
        "address": "Marienfelder Allee 66/80, Berlin",
        "website": "https://www.notaufnahmelager-berlin.de/",
        "wikidata": "Q882022",
        "wikipedia": "de:Notaufnahmelager Marienfelde"
      },
      "geometry": {
        "type": "Point",
        "coordinates": [
          13.3684502,
          52.4204028
        ]
      }
    },
    {
      "type": "Feature",
      "properties": {
        "weight": 1.0
      },
      "geometry": {
        "type": "Point",
        "coordinates": [
          13.4806276,
          52.42068
        ]
      }
    },
    {
      "type": "Feature",
      "properties": {
        "weight": 1.0
      },
      "geometry": {
        "type": "Point",
        "coordinates": [
          13.6138738,
          52.4212107
        ]
      }
    },
    {
      "type": "Feature",
      "properties": {
        "weight": 1.0,
        "id": 7054095794,
        "hasDetails": true,
        "name": "Maternal II",
        "wikidata": "Q78304640"
      },
      "geometry": {
        "type": "Point",
        "coordinates": [
          13.4229515,
          52.4215355
        ]
      }
    },
    {
      "type": "Feature",
      "properties": {
        "weight": 1.0,
        "id": 6668764170,
        "hasDetails": true,
        "name": "Schw\u00e4bische Flossfahrer",
        "wikidata": "Q118499743"
      },
      "geometry": {
        "type": "Point",
        "coordinates": [
          13.2540666,
          52.4218764
        ]
      }
    },
    {
      "type": "Feature",
      "properties": {
        "weight": 1.0,
        "id": 11094595135,
        "hasDetails": true,
        "name": "Museum Buckow",
        "address": "Buckower Damm 242, Berlin",
        "website": "https://www.buckower-heimatverein.de"
      },
      "geometry": {
        "type": "Point",
        "coordinates": [
          13.4374274,
          52.4223917
        ]
      }
    },
    {
      "type": "Feature",
      "properties": {
        "weight": 1.0,
        "id": 10039085354,
        "hasDetails": true,
        "name": "Artistinnen",
        "wikidata": "Q115768092"
      },
      "geometry": {
        "type": "Point",
        "coordinates": [
          13.2544957,
          52.4224945
        ]
      }
    },
    {
      "type": "Feature",
      "properties": {
        "weight": 1.0,
        "id": 11244426131,
        "hasDetails": true,
        "name": "Getrennt-Zusammen I",
        "wikidata": "Q110620737"
      },
      "geometry": {
        "type": "Point",
        "coordinates": [
          13.4729978,
          52.4225119
        ]
      }
    },
    {
      "type": "Feature",
      "properties": {
        "weight": 1.0
      },
      "geometry": {
        "type": "Point",
        "coordinates": [
          13.4319831,
          52.4225713
        ]
      }
    },
    {
      "type": "Feature",
      "properties": {
        "weight": 1.0
      },
      "geometry": {
        "type": "Point",
        "coordinates": [
          13.2943515,
          52.4228215
        ]
      }
    },
    {
      "type": "Feature",
      "properties": {
        "weight": 1.0,
        "id": 2904608124,
        "hasDetails": true,
        "wikidata": "Q114455312"
      },
      "geometry": {
        "type": "Point",
        "coordinates": [
          13.4756959,
          52.4233046
        ]
      }
    },
    {
      "type": "Feature",
      "properties": {
        "weight": 1.0,
        "id": 7330227384,
        "hasDetails": true,
        "name": "Turnende Kinder",
        "website": "https://bildhauerei-in-berlin.de/bildwerk/turnende-knaben-8076/",
        "wikidata": "Q115563982"
      },
      "geometry": {
        "type": "Point",
        "coordinates": [
          13.5916784,
          52.4233588
        ]
      }
    },
    {
      "type": "Feature",
      "properties": {
        "weight": 1.0
      },
      "geometry": {
        "type": "Point",
        "coordinates": [
          13.4817051,
          52.4236048
        ]
      }
    },
    {
      "type": "Feature",
      "properties": {
        "weight": 1.0
      },
      "geometry": {
        "type": "Point",
        "coordinates": [
          13.4180143,
          52.4237455
        ]
      }
    },
    {
      "type": "Feature",
      "properties": {
        "weight": 1.0
      },
      "geometry": {
        "type": "Point",
        "coordinates": [
          13.5709204,
          52.4238644
        ]
      }
    },
    {
      "type": "Feature",
      "properties": {
        "weight": 1.0
      },
      "geometry": {
        "type": "Point",
        "coordinates": [
          13.2125869,
          52.4243624
        ]
      }
    },
    {
      "type": "Feature",
      "properties": {
        "weight": 1.0
      },
      "geometry": {
        "type": "Point",
        "coordinates": [
          13.4205024,
          52.4244064
        ]
      }
    },
    {
      "type": "Feature",
      "properties": {
        "weight": 1.0,
        "id": 283862582,
        "hasDetails": true,
        "name": "Museumsdorf D\u00fcppel",
        "address": "Clauertstra\u00dfe 11, Berlin",
        "website": "https://www.dueppel.de/",
        "wikidata": "Q885171",
        "wikipedia": "de:Museumsdorf D\u00fcppel"
      },
      "geometry": {
        "type": "Point",
        "coordinates": [
          13.2361771,
          52.424823
        ]
      }
    },
    {
      "type": "Feature",
      "properties": {
        "weight": 1.0
      },
      "geometry": {
        "type": "Point",
        "coordinates": [
          13.425556,
          52.4250227
        ]
      }
    },
    {
      "type": "Feature",
      "properties": {
        "weight": 1.0,
        "id": 3781928047,
        "hasDetails": true,
        "name": "Pan mit Doppelfl\u00f6te",
        "wikidata": "Q78358252"
      },
      "geometry": {
        "type": "Point",
        "coordinates": [
          13.2576046,
          52.4251071
        ]
      }
    },
    {
      "type": "Feature",
      "properties": {
        "weight": 1.0,
        "id": 28147152,
        "hasDetails": true,
        "name": "Museumsdorf D\u00fcppel",
        "address": "Clauertstra\u00dfe 11, Berlin",
        "website": "https://www.stadtmuseum.de/museum/museumsdorf-dueppel",
        "opening_hours": "Mar-Oct Sa-Su 10:00-18:00; Mar-Oct PH 10:00-18:00",
        "wikidata": "Q885171",
        "wikipedia": "de:Museumsdorf D\u00fcppel"
      },
      "geometry": {
        "type": "Point",
        "coordinates": [
          13.2336756,
          52.425139
        ]
      }
    },
    {
      "type": "Feature",
      "properties": {
        "weight": 1.0
      },
      "geometry": {
        "type": "Point",
        "coordinates": [
          13.2624811,
          52.425497
        ]
      }
    },
    {
      "type": "Feature",
      "properties": {
        "weight": 1.0
      },
      "geometry": {
        "type": "Point",
        "coordinates": [
          13.4599787,
          52.4257764
        ]
      }
    },
    {
      "type": "Feature",
      "properties": {
        "weight": 1.0
      },
      "geometry": {
        "type": "Point",
        "coordinates": [
          13.4282968,
          52.426818
        ]
      }
    },
    {
      "type": "Feature",
      "properties": {
        "weight": 1.0,
        "id": 13018270110,
        "hasDetails": true,
        "name": "Ernte-Monitor",
        "website": "https://docs.google.com/forms/d/e/1FAIpQLSfIt6ReqqJEPWu1AxmTmX4tISdaMyPFAMntgl9QaWc7jdZLRA/viewform"
      },
      "geometry": {
        "type": "Point",
        "coordinates": [
          13.4284522,
          52.4268802
        ]
      }
    },
    {
      "type": "Feature",
      "properties": {
        "weight": 1.0
      },
      "geometry": {
        "type": "Point",
        "coordinates": [
          13.2012203,
          52.4269229
        ]
      }
    },
    {
      "type": "Feature",
      "properties": {
        "weight": 1.0,
        "id": 3783466951,
        "hasDetails": true,
        "name": "Schwerm\u00fctige Frauen",
        "wikidata": "Q139928882"
      },
      "geometry": {
        "type": "Point",
        "coordinates": [
          13.2644785,
          52.4270384
        ]
      }
    },
    {
      "type": "Feature",
      "properties": {
        "weight": 1.0
      },
      "geometry": {
        "type": "Point",
        "coordinates": [
          13.4265341,
          52.4271107
        ]
      }
    },
    {
      "type": "Feature",
      "properties": {
        "weight": 1.0,
        "id": 1501212374,
        "hasDetails": true,
        "name": "Fuchs-Villa",
        "opening_hours": "Mo-Fr 18:30-20:00; Sa,Su off"
      },
      "geometry": {
        "type": "Point",
        "coordinates": [
          13.4280163,
          52.4271138
        ]
      }
    },
    {
      "type": "Feature",
      "properties": {
        "weight": 1.0
      },
      "geometry": {
        "type": "Point",
        "coordinates": [
          13.4271497,
          52.4272595
        ]
      }
    },
    {
      "type": "Feature",
      "properties": {
        "weight": 1.0
      },
      "geometry": {
        "type": "Point",
        "coordinates": [
          13.4285702,
          52.4273061
        ]
      }
    },
    {
      "type": "Feature",
      "properties": {
        "weight": 1.0,
        "id": 5198395080,
        "hasDetails": true,
        "name": "Tor aus glasierten Ziegelsteinen",
        "website": "https://bildhauerei-in-berlin.de/bildwerk/tor-6971/"
      },
      "geometry": {
        "type": "Point",
        "coordinates": [
          13.539318,
          52.4273544
        ]
      }
    },
    {
      "type": "Feature",
      "properties": {
        "weight": 1.0,
        "id": 9195769150,
        "hasDetails": true,
        "name": "Auerhahn",
        "wikidata": "Q123402118"
      },
      "geometry": {
        "type": "Point",
        "coordinates": [
          13.4262422,
          52.4273679
        ]
      }
    },
    {
      "type": "Feature",
      "properties": {
        "weight": 1.0
      },
      "geometry": {
        "type": "Point",
        "coordinates": [
          13.4288236,
          52.4274391
        ]
      }
    },
    {
      "type": "Feature",
      "properties": {
        "weight": 1.0
      },
      "geometry": {
        "type": "Point",
        "coordinates": [
          13.5535825,
          52.4274573
        ]
      }
    },
    {
      "type": "Feature",
      "properties": {
        "weight": 1.0
      },
      "geometry": {
        "type": "Point",
        "coordinates": [
          13.4286446,
          52.427475
        ]
      }
    },
    {
      "type": "Feature",
      "properties": {
        "weight": 1.0
      },
      "geometry": {
        "type": "Point",
        "coordinates": [
          13.4284555,
          52.4274819
        ]
      }
    },
    {
      "type": "Feature",
      "properties": {
        "weight": 1.0
      },
      "geometry": {
        "type": "Point",
        "coordinates": [
          13.4705594,
          52.4276326
        ]
      }
    },
    {
      "type": "Feature",
      "properties": {
        "weight": 1.0,
        "id": 12946596688,
        "hasDetails": true,
        "wikidata": "Q115866905"
      },
      "geometry": {
        "type": "Point",
        "coordinates": [
          13.4525396,
          52.4276577
        ]
      }
    },
    {
      "type": "Feature",
      "properties": {
        "weight": 1.0,
        "id": 2763629836,
        "hasDetails": true,
        "name": "Katze",
        "website": "https://bildhauerei-in-berlin.de/bildwerk/katze-6714/",
        "wikidata": "Q115870494"
      },
      "geometry": {
        "type": "Point",
        "coordinates": [
          13.4224578,
          52.4279838
        ]
      }
    },
    {
      "type": "Feature",
      "properties": {
        "weight": 1.0,
        "id": 2763615372,
        "hasDetails": true,
        "name": "In der Schwebe der Zeit",
        "website": "https://bildhauerei-in-berlin.de/bildwerk/in-der-schwebe-der-zeit-10154/",
        "wikidata": "Q136100890"
      },
      "geometry": {
        "type": "Point",
        "coordinates": [
          13.4235126,
          52.4281248
        ]
      }
    },
    {
      "type": "Feature",
      "properties": {
        "weight": 1.0,
        "id": 2763615369,
        "hasDetails": true,
        "name": "Plinthe",
        "wikidata": "Q116458122"
      },
      "geometry": {
        "type": "Point",
        "coordinates": [
          13.4277257,
          52.4281384
        ]
      }
    },
    {
      "type": "Feature",
      "properties": {
        "weight": 1.0,
        "id": 2763597887,
        "hasDetails": true,
        "name": "Grabstelle",
        "website": "https://bildhauerei-in-berlin.de/bildwerk/grabzeichen-grabstelle-4885/",
        "wikidata": "Q116394217"
      },
      "geometry": {
        "type": "Point",
        "coordinates": [
          13.4289465,
          52.4281722
        ]
      }
    },
    {
      "type": "Feature",
      "properties": {
        "weight": 1.0,
        "id": 2763597886,
        "hasDetails": true,
        "name": "Grabzeichen",
        "website": "https://bildhauerei-in-berlin.de/bildwerk/grabzeichen-5192/",
        "wikidata": "Q116209946"
      },
      "geometry": {
        "type": "Point",
        "coordinates": [
          13.4293911,
          52.4281798
        ]
      }
    },
    {
      "type": "Feature",
      "properties": {
        "weight": 1.0,
        "id": 6445046907,
        "hasDetails": true,
        "name": "Kopf",
        "website": "https://bildhauerei-in-berlin.de/bildwerk/kopf-6938/",
        "wikidata": "Q115806284"
      },
      "geometry": {
        "type": "Point",
        "coordinates": [
          13.552764,
          52.4282168
        ]
      }
    },
    {
      "type": "Feature",
      "properties": {
        "weight": 1.0,
        "id": 2753451850,
        "hasDetails": true,
        "name": "Fette Henne",
        "amenity": "fountain",
        "website": "https://bildhauerei-in-berlin.de/bildwerk/fette-henne-5284/",
        "wikidata": "Q1409204"
      },
      "geometry": {
        "type": "Point",
        "coordinates": [
          13.4340648,
          52.4283365
        ]
      }
    },
    {
      "type": "Feature",
      "properties": {
        "weight": 1.0
      },
      "geometry": {
        "type": "Point",
        "coordinates": [
          13.4216291,
          52.4283723
        ]
      }
    },
    {
      "type": "Feature",
      "properties": {
        "weight": 1.0,
        "id": 7815036295,
        "hasDetails": true,
        "name": "Rote Granitplatte (Grabzeichen)",
        "website": "https://bildhauerei-in-berlin.de/bildwerk/rote-granitplatte-grabzeichen-4766/",
        "wikidata": "Q116453201"
      },
      "geometry": {
        "type": "Point",
        "coordinates": [
          13.4260556,
          52.4284089
        ]
      }
    },
    {
      "type": "Feature",
      "properties": {
        "weight": 1.0,
        "id": 2763597888,
        "hasDetails": true,
        "name": "Zeit-Wege-Zeit",
        "website": "https://bildhauerei-in-berlin.de/bildwerk/zeit-wege-zeit-5067/",
        "wikidata": "Q116291666"
      },
      "geometry": {
        "type": "Point",
        "coordinates": [
          13.4281422,
          52.4284305
        ]
      }
    },
    {
      "type": "Feature",
      "properties": {
        "weight": 1.0,
        "id": 12826284708,
        "hasDetails": true,
        "name": "Kosmischer Kreis",
        "website": "https://bildhauerei-in-berlin.de/bildwerk/kosmischer-kreis-grabzeichen-5360/",
        "wikidata": "Q116291666"
      },
      "geometry": {
        "type": "Point",
        "coordinates": [
          13.4276664,
          52.4284954
        ]
      }
    },
    {
      "type": "Feature",
      "properties": {
        "weight": 1.0,
        "id": 7815036297,
        "hasDetails": true,
        "name": "Abstrakte Figur",
        "website": "https://bildhauerei-in-berlin.de/bildwerk/abstrakte-figur-6711/",
        "wikidata": "Q115870505"
      },
      "geometry": {
        "type": "Point",
        "coordinates": [
          13.4271072,
          52.4287061
        ]
      }
    },
    {
      "type": "Feature",
      "properties": {
        "weight": 1.0,
        "id": 7814962782,
        "hasDetails": true,
        "name": "Keim",
        "website": "https://bildhauerei-in-berlin.de/bildwerk/keim-6709/",
        "wikidata": "Q115871237"
      },
      "geometry": {
        "type": "Point",
        "coordinates": [
          13.4272181,
          52.4288586
        ]
      }
    },
    {
      "type": "Feature",
      "properties": {
        "weight": 1.0,
        "id": 6458861119,
        "hasDetails": true,
        "name": "Stele mit zwei menschlichen Figuren",
        "website": "https://bildhauerei-in-berlin.de/bildwerk/stele-mit-zwei-menschlichen-figuren-6710/",
        "wikidata": "Q138842140"
      },
      "geometry": {
        "type": "Point",
        "coordinates": [
          13.4274974,
          52.4288657
        ]
      }
    },
    {
      "type": "Feature",
      "properties": {
        "weight": 1.0,
        "id": 7330227383,
        "hasDetails": true,
        "name": "Rehkitz",
        "website": "https://bildhauerei-in-berlin.de/bildwerk/rehkitz-8081/",
        "wikidata": "Q115562811"
      },
      "geometry": {
        "type": "Point",
        "coordinates": [
          13.5948984,
          52.4290252
        ]
      }
    },
    {
      "type": "Feature",
      "properties": {
        "weight": 1.0,
        "id": 12809719506,
        "hasDetails": true,
        "name": "Mann mit dicken Armen",
        "website": "https://bildhauerei-in-berlin.de/bildwerk/mann-mit-dicken-armen-6708/"
      },
      "geometry": {
        "type": "Point",
        "coordinates": [
          13.4281088,
          52.4292255
        ]
      }
    },
    {
      "type": "Feature",
      "properties": {
        "weight": 1.0,
        "id": 6458861118,
        "hasDetails": true,
        "name": "Dogs hole \u2013 Tunnel-Memorial",
        "website": "https://bildhauerei-in-berlin.de/bildwerk/dogs-hole-tunnel-memorial-6713/"
      },
      "geometry": {
        "type": "Point",
        "coordinates": [
          13.4271003,
          52.4294575
        ]
      }
    },
    {
      "type": "Feature",
      "properties": {
        "weight": 1.0,
        "id": 9693101659,
        "hasDetails": true,
        "name": "Wegzeichen",
        "website": "https://bildhauerei-in-berlin.de/bildwerk/wegzeichen-6720/",
        "wikidata": "Q115869498"
      },
      "geometry": {
        "type": "Point",
        "coordinates": [
          13.4090978,
          52.4296197
        ]
      }
    },
    {
      "type": "Feature",
      "properties": {
        "weight": 1.0
      },
      "geometry": {
        "type": "Point",
        "coordinates": [
          13.2893463,
          52.4296639
        ]
      }
    },
    {
      "type": "Feature",
      "properties": {
        "weight": 1.0,
        "id": 7054549035,
        "hasDetails": true,
        "name": "Jungen mit Drachen",
        "wikidata": "Q78325056"
      },
      "geometry": {
        "type": "Point",
        "coordinates": [
          13.3494151,
          52.4298837
        ]
      }
    },
    {
      "type": "Feature",
      "properties": {
        "weight": 1.0
      },
      "geometry": {
        "type": "Point",
        "coordinates": [
          13.2890988,
          52.4299543
        ]
      }
    },
    {
      "type": "Feature",
      "properties": {
        "weight": 1.0,
        "id": 9142771829,
        "hasDetails": true,
        "name": "Wassertr\u00e4gerin",
        "wikidata": "Q114215496"
      },
      "geometry": {
        "type": "Point",
        "coordinates": [
          13.4250345,
          52.429968
        ]
      }
    },
    {
      "type": "Feature",
      "properties": {
        "weight": 1.0
      },
      "geometry": {
        "type": "Point",
        "coordinates": [
          13.4223881,
          52.4299893
        ]
      }
    },
    {
      "type": "Feature",
      "properties": {
        "weight": 1.0,
        "id": 10980529713,
        "hasDetails": true,
        "name": "Barmherziger Samariter",
        "wikidata": "Q123168664"
      },
      "geometry": {
        "type": "Point",
        "coordinates": [
          13.2890758,
          52.430088
        ]
      }
    },
    {
      "type": "Feature",
      "properties": {
        "weight": 1.0,
        "id": 9142771831,
        "hasDetails": true,
        "name": "Persephone",
        "wikidata": "Q110008433"
      },
      "geometry": {
        "type": "Point",
        "coordinates": [
          13.4262934,
          52.430094
        ]
      }
    },
    {
      "type": "Feature",
      "properties": {
        "weight": 1.0,
        "id": 9142771830,
        "hasDetails": true,
        "name": "Eulenbrunnen",
        "wikidata": "Q113656393"
      },
      "geometry": {
        "type": "Point",
        "coordinates": [
          13.4291882,
          52.430215
        ]
      }
    },
    {
      "type": "Feature",
      "properties": {
        "weight": 1.0,
        "id": 9142771828,
        "hasDetails": true,
        "name": "Fischbrunnen",
        "wikidata": "Q136032008"
      },
      "geometry": {
        "type": "Point",
        "coordinates": [
          13.4277526,
          52.4302845
        ]
      }
    },
    {
      "type": "Feature",
      "properties": {
        "weight": 1.0,
        "id": 2327229732,
        "hasDetails": true,
        "name": "Kryptographie",
        "website": "https://bildhauerei-in-berlin.de/bildwerk/kryptographisches-experiment-6959/",
        "wikidata": "Q110438070"
      },
      "geometry": {
        "type": "Point",
        "coordinates": [
          13.5309817,
          52.4304018
        ]
      }
    },
    {
      "type": "Feature",
      "properties": {
        "weight": 1.0,
        "id": 9142771826,
        "hasDetails": true,
        "name": "Wasserspeier",
        "wikidata": "Q113661421"
      },
      "geometry": {
        "type": "Point",
        "coordinates": [
          13.4315103,
          52.4304554
        ]
      }
    },
    {
      "type": "Feature",
      "properties": {
        "weight": 1.0
      },
      "geometry": {
        "type": "Point",
        "coordinates": [
          13.4356906,
          52.4305662
        ]
      }
    },
    {
      "type": "Feature",
      "properties": {
        "weight": 1.0,
        "id": 12809719505,
        "hasDetails": true,
        "name": "Zwei Steine mit italienischer Inschrift",
        "website": "https://bildhauerei-in-berlin.de/bildwerk/zwei-steine-mit-italienischer-inschrift-6707/"
      },
      "geometry": {
        "type": "Point",
        "coordinates": [
          13.4216803,
          52.4305728
        ]
      }
    },
    {
      "type": "Feature",
      "properties": {
        "weight": 1.0
      },
      "geometry": {
        "type": "Point",
        "coordinates": [
          13.3117928,
          52.4307575
        ]
      }
    },
    {
      "type": "Feature",
      "properties": {
        "weight": 1.0,
        "id": 6438753607,
        "hasDetails": true,
        "name": "H\u00fcter der Schwelle",
        "website": "https://bildhauerei-in-berlin.de/bildwerk/hueter-der-schwelle-6721/",
        "wikidata": "Q115870011"
      },
      "geometry": {
        "type": "Point",
        "coordinates": [
          13.4073111,
          52.4308157
        ]
      }
    },
    {
      "type": "Feature",
      "properties": {
        "weight": 1.0,
        "id": 9142771827,
        "hasDetails": true,
        "name": "Reiherbrunnen",
        "wikidata": "Q113454248"
      },
      "geometry": {
        "type": "Point",
        "coordinates": [
          13.4253909,
          52.4308904
        ]
      }
    },
    {
      "type": "Feature",
      "properties": {
        "weight": 1.0,
        "id": 12636009166,
        "hasDetails": true,
        "name": "Digitaler Zwilling",
        "website": "https://www.wista.de/fileadmin/user_upload/downloads/projekte/Digitaler-Zwilling.pdf"
      },
      "geometry": {
        "type": "Point",
        "coordinates": [
          13.5340888,
          52.4309869
        ]
      }
    },
    {
      "type": "Feature",
      "properties": {
        "weight": 1.0,
        "id": 9693101656,
        "hasDetails": true,
        "name": "Wishing Star",
        "website": "https://bildhauerei-in-berlin.de/bildwerk/wishing-star-4702/",
        "wikidata": "Q116478489"
      },
      "geometry": {
        "type": "Point",
        "coordinates": [
          13.4211985,
          52.4313938
        ]
      }
    },
    {
      "type": "Feature",
      "properties": {
        "weight": 1.0,
        "id": 10186284236,
        "hasDetails": true,
        "name": "Hall of Fame",
        "website": "http://graffitisz.de/"
      },
      "geometry": {
        "type": "Point",
        "coordinates": [
          13.349391,
          52.4314284
        ]
      }
    },
    {
      "type": "Feature",
      "properties": {
        "weight": 1.0,
        "id": 3121844829,
        "hasDetails": true,
        "name": "Kopfbewegung",
        "website": "https://bildhauerei-in-berlin.de/bildwerk/kopfbewegung-6968/",
        "wikidata": "Q110425463"
      },
      "geometry": {
        "type": "Point",
        "coordinates": [
          13.5329979,
          52.4314296
        ]
      }
    },
    {
      "type": "Feature",
      "properties": {
        "weight": 1.0,
        "id": 13371967737,
        "hasDetails": true,
        "wikidata": "Q116189364"
      },
      "geometry": {
        "type": "Point",
        "coordinates": [
          13.3889877,
          52.4315861
        ]
      }
    },
    {
      "type": "Feature",
      "properties": {
        "weight": 1.0
      },
      "geometry": {
        "type": "Point",
        "coordinates": [
          13.419129,
          52.4317936
        ]
      }
    },
    {
      "type": "Feature",
      "properties": {
        "weight": 1.0
      },
      "geometry": {
        "type": "Point",
        "coordinates": [
          13.2168186,
          52.431842
        ]
      }
    },
    {
      "type": "Feature",
      "properties": {
        "weight": 1.0,
        "id": 7052492435,
        "hasDetails": true,
        "name": "B\u00fccher",
        "wikidata": "Q78209502"
      },
      "geometry": {
        "type": "Point",
        "coordinates": [
          13.2557123,
          52.4319159
        ]
      }
    },
    {
      "type": "Feature",
      "properties": {
        "weight": 1.0,
        "id": 23161028,
        "hasDetails": true,
        "name": "Britzer M\u00fchle",
        "wikidata": "Q921149"
      },
      "geometry": {
        "type": "Point",
        "coordinates": [
          13.4335575,
          52.4319831
        ]
      }
    },
    {
      "type": "Feature",
      "properties": {
        "weight": 1.0
      },
      "geometry": {
        "type": "Point",
        "coordinates": [
          13.4169876,
          52.4320336
        ]
      }
    },
    {
      "type": "Feature",
      "properties": {
        "weight": 1.0,
        "id": 2763825709,
        "hasDetails": true,
        "name": "Harfe und Pauke",
        "website": "https://bildhauerei-in-berlin.de/bildwerk/paukenharfe-hommage-karl-foerster-4945/",
        "wikidata": "Q116374642"
      },
      "geometry": {
        "type": "Point",
        "coordinates": [
          13.4161347,
          52.4322054
        ]
      }
    },
    {
      "type": "Feature",
      "properties": {
        "weight": 1.0
      },
      "geometry": {
        "type": "Point",
        "coordinates": [
          13.40819,
          52.4323127
        ]
      }
    },
    {
      "type": "Feature",
      "properties": {
        "weight": 1.0,
        "id": 24996128,
        "hasDetails": true,
        "name": "Damwild, Mufflons",
        "opening_hours": "24/7"
      },
      "geometry": {
        "type": "Point",
        "coordinates": [
          13.351466,
          52.4323233
        ]
      }
    },
    {
      "type": "Feature",
      "properties": {
        "weight": 1.0
      },
      "geometry": {
        "type": "Point",
        "coordinates": [
          13.4211087,
          52.4325245
        ]
      }
    },
    {
      "type": "Feature",
      "properties": {
        "weight": 1.0,
        "id": 12842646754,
        "hasDetails": true,
        "name": "Balance III",
        "website": "https://bildhauerei-in-berlin.de/bildwerk/balance-iii-6966/"
      },
      "geometry": {
        "type": "Point",
        "coordinates": [
          13.5571051,
          52.4328954
        ]
      }
    },
    {
      "type": "Feature",
      "properties": {
        "weight": 1.0,
        "id": 5778409134,
        "hasDetails": true,
        "name": "Mondjahr",
        "website": "https://bildhauerei-in-berlin.de/bildwerk/mondjahr-5131/",
        "wikidata": "Q136808299"
      },
      "geometry": {
        "type": "Point",
        "coordinates": [
          13.4140106,
          52.4330453
        ]
      }
    },
    {
      "type": "Feature",
      "properties": {
        "weight": 1.0,
        "id": 9693101658,
        "hasDetails": true,
        "name": "Rhizomatische Br\u00fccke",
        "website": "https://bildhauerei-in-berlin.de/bildwerk/kosmologischer-park-4846/"
      },
      "geometry": {
        "type": "Point",
        "coordinates": [
          13.4167319,
          52.4330586
        ]
      }
    },
    {
      "type": "Feature",
      "properties": {
        "weight": 1.0
      },
      "geometry": {
        "type": "Point",
        "coordinates": [
          13.5393076,
          52.433103
        ]
      }
    },
    {
      "type": "Feature",
      "properties": {
        "weight": 1.0
      },
      "geometry": {
        "type": "Point",
        "coordinates": [
          13.5394465,
          52.4331353
        ]
      }
    },
    {
      "type": "Feature",
      "properties": {
        "weight": 1.0
      },
      "geometry": {
        "type": "Point",
        "coordinates": [
          13.538916,
          52.4332077
        ]
      }
    },
    {
      "type": "Feature",
      "properties": {
        "weight": 1.0,
        "id": 12826284709,
        "hasDetails": true,
        "name": "Tor",
        "website": "https://bildhauerei-in-berlin.de/bildwerk/tor-gneis-6719/"
      },
      "geometry": {
        "type": "Point",
        "coordinates": [
          13.4118606,
          52.4333262
        ]
      }
    },
    {
      "type": "Feature",
      "properties": {
        "weight": 1.0,
        "id": 9693101657,
        "hasDetails": true,
        "name": "Drei Liegende",
        "website": "https://bildhauerei-in-berlin.de/bildwerk/drei-liegende-4867/",
        "wikidata": "Q136431764"
      },
      "geometry": {
        "type": "Point",
        "coordinates": [
          13.4151943,
          52.4334836
        ]
      }
    },
    {
      "type": "Feature",
      "properties": {
        "weight": 1.0,
        "id": 9994533746,
        "hasDetails": true,
        "name": "Ruhendes M\u00e4dchen",
        "wikidata": "Q110113429"
      },
      "geometry": {
        "type": "Point",
        "coordinates": [
          13.2591855,
          52.4335223
        ]
      }
    },
    {
      "type": "Feature",
      "properties": {
        "weight": 1.0,
        "id": 12826284712,
        "hasDetails": true,
        "name": "Steinhaus mit Seelenloch",
        "website": "https://bildhauerei-in-berlin.de/bildwerk/steinhaus-mit-seelenloch-5329/",
        "wikidata": "Q135012772"
      },
      "geometry": {
        "type": "Point",
        "coordinates": [
          13.4179604,
          52.4336375
        ]
      }
    },
    {
      "type": "Feature",
      "properties": {
        "weight": 1.0,
        "id": 9693101660,
        "hasDetails": true,
        "name": "Gro\u00dfer Wasserstein",
        "website": "https://bildhauerei-in-berlin.de/bildwerk/grosser-wasserstein-6712/",
        "wikidata": "Q115871217"
      },
      "geometry": {
        "type": "Point",
        "coordinates": [
          13.4137139,
          52.4337555
        ]
      }
    },
    {
      "type": "Feature",
      "properties": {
        "weight": 1.0,
        "id": 19376753,
        "hasDetails": true,
        "name": "Britzer Garten",
        "website": "https://www.britzergarten.de",
        "opening_hours": "Mo-Su 09:00-20:00",
        "wikidata": "Q565659",
        "wikipedia": "de:Britzer Garten"
      },
      "geometry": {
        "type": "Point",
        "coordinates": [
          13.4206166,
          52.4338073
        ]
      }
    },
    {
      "type": "Feature",
      "properties": {
        "weight": 1.0,
        "id": 231008506,
        "hasDetails": true,
        "name": "Kunst-Pavillon",
        "opening_hours": "Apr 09-Oct 30 Sa,Su,PH 14:00-18:00"
      },
      "geometry": {
        "type": "Point",
        "coordinates": [
          13.4119287,
          52.4341186
        ]
      }
    },
    {
      "type": "Feature",
      "properties": {
        "weight": 1.0,
        "id": 12961510591,
        "hasDetails": true,
        "wikidata": "Q115769286"
      },
      "geometry": {
        "type": "Point",
        "coordinates": [
          13.2541702,
          52.4341777
        ]
      }
    },
    {
      "type": "Feature",
      "properties": {
        "weight": 1.0,
        "id": 7541583038,
        "hasDetails": true,
        "name": "La Belle Jardini\u00e8re",
        "website": "https://bildhauerei-in-berlin.de/bildwerk/la-belle-jardiniere-5099/",
        "wikidata": "Q114346678"
      },
      "geometry": {
        "type": "Point",
        "coordinates": [
          13.4203041,
          52.4343573
        ]
      }
    },
    {
      "type": "Feature",
      "properties": {
        "weight": 1.0
      },
      "geometry": {
        "type": "Point",
        "coordinates": [
          13.4139499,
          52.4344579
        ]
      }
    },
    {
      "type": "Feature",
      "properties": {
        "weight": 1.0,
        "id": 12826284710,
        "hasDetails": true,
        "name": "CorTen-Stahl-S\u00e4ule",
        "website": "https://bildhauerei-in-berlin.de/bildwerk/corten-stahl-saeule-6716/"
      },
      "geometry": {
        "type": "Point",
        "coordinates": [
          13.4128705,
          52.4344632
        ]
      }
    },
    {
      "type": "Feature",
      "properties": {
        "weight": 1.0,
        "id": 9693101665,
        "hasDetails": true,
        "name": "Sarkophag",
        "website": "https://bildhauerei-in-berlin.de/bildwerk/sarkophag-6717/",
        "wikidata": "Q115869622"
      },
      "geometry": {
        "type": "Point",
        "coordinates": [
          13.4137849,
          52.4348422
        ]
      }
    },
    {
      "type": "Feature",
      "properties": {
        "weight": 1.0
      },
      "geometry": {
        "type": "Point",
        "coordinates": [
          13.4166619,
          52.4349921
        ]
      }
    },
    {
      "type": "Feature",
      "properties": {
        "weight": 1.0
      },
      "geometry": {
        "type": "Point",
        "coordinates": [
          13.2996615,
          52.4353566
        ]
      }
    },
    {
      "type": "Feature",
      "properties": {
        "weight": 1.0,
        "id": 507083358,
        "hasDetails": true,
        "name": "Heimatmuseum Zehlendorf",
        "address": "Clayallee 355, Berlin",
        "website": "https://www.heimatmuseum-zehlendorf.de/",
        "opening_hours": "Mo,Th 10:00-18:00; Tu,Fr 10:00-14:00",
        "wikidata": "Q28737426"
      },
      "geometry": {
        "type": "Point",
        "coordinates": [
          13.2603049,
          52.4354496
        ]
      }
    },
    {
      "type": "Feature",
      "properties": {
        "weight": 1.0,
        "id": 2218405292,
        "hasDetails": true,
        "name": "Ramificazioni",
        "website": "https://bildhauerei-in-berlin.de/bildwerk/ramificazioni-verzweigungen-4843/",
        "wikidata": "Q110917739"
      },
      "geometry": {
        "type": "Point",
        "coordinates": [
          13.4303248,
          52.4354846
        ]
      }
    },
    {
      "type": "Feature",
      "properties": {
        "weight": 1.0
      },
      "geometry": {
        "type": "Point",
        "coordinates": [
          13.4589325,
          52.4358354
        ]
      }
    },
    {
      "type": "Feature",
      "properties": {
        "weight": 1.0,
        "id": 6458668803,
        "hasDetails": true,
        "name": "Katastrophenbrunnen",
        "website": "https://bildhauerei-in-berlin.de/bildwerk/katastrophenbrunnen-5083/",
        "wikidata": "Q114346526"
      },
      "geometry": {
        "type": "Point",
        "coordinates": [
          13.4218102,
          52.43591
        ]
      }
    },
    {
      "type": "Feature",
      "properties": {
        "weight": 1.0
      },
      "geometry": {
        "type": "Point",
        "coordinates": [
          13.4148833,
          52.436004
        ]
      }
    },
    {
      "type": "Feature",
      "properties": {
        "weight": 1.0,
        "id": 8264929383,
        "hasDetails": true,
        "name": "Kunsthaus der Achim Freyer Stiftung",
        "address": "Kadettenweg 53, Berlin",
        "website": "https://www.achimfreyer.com/kunsthaus-und-sammlung/",
        "opening_hours": "Tu,Th,Su 15:00-18:00"
      },
      "geometry": {
        "type": "Point",
        "coordinates": [
          13.2987431,
          52.4360266
        ]
      }
    },
    {
      "type": "Feature",
      "properties": {
        "weight": 1.0,
        "id": 6458668806,
        "hasDetails": true,
        "name": "Steinzeichen",
        "website": "https://bildhauerei-in-berlin.de/bildwerk/steinzeichen-4752/"
      },
      "geometry": {
        "type": "Point",
        "coordinates": [
          13.4168956,
          52.4362459
        ]
      }
    },
    {
      "type": "Feature",
      "properties": {
        "weight": 1.0
      },
      "geometry": {
        "type": "Point",
        "coordinates": [
          13.4207543,
          52.436514
        ]
      }
    },
    {
      "type": "Feature",
      "properties": {
        "weight": 1.0
      },
      "geometry": {
        "type": "Point",
        "coordinates": [
          13.4505017,
          52.4365869
        ]
      }
    },
    {
      "type": "Feature",
      "properties": {
        "weight": 1.0,
        "id": 9693101664,
        "hasDetails": true,
        "name": "12 Speere",
        "website": "https://bildhauerei-in-berlin.de/bildwerk/12-speere-der-sonne-entgegen-geworfen-12-speere-der-sonne-hinterhergeworfen-5024/",
        "wikidata": "Q114346606"
      },
      "geometry": {
        "type": "Point",
        "coordinates": [
          13.4218316,
          52.4366507
        ]
      }
    },
    {
      "type": "Feature",
      "properties": {
        "weight": 1.0,
        "id": 9693101663,
        "hasDetails": true,
        "name": "12 Speere",
        "website": "https://bildhauerei-in-berlin.de/bildwerk/12-speere-der-sonne-entgegen-geworfen-12-speere-der-sonne-hinterhergeworfen-5024/"
      },
      "geometry": {
        "type": "Point",
        "coordinates": [
          13.4197649,
          52.4366662
        ]
      }
    },
    {
      "type": "Feature",
      "properties": {
        "weight": 1.0,
        "id": 13875915082,
        "hasDetails": true,
        "name": "Rehe",
        "wikidata": "Q139917080"
      },
      "geometry": {
        "type": "Point",
        "coordinates": [
          13.2728954,
          52.4369483
        ]
      }
    },
    {
      "type": "Feature",
      "properties": {
        "weight": 1.0,
        "id": 5777054163,
        "hasDetails": true,
        "name": "Odin",
        "website": "https://bildhauerei-in-berlin.de/bildwerk/odin-4876/",
        "wikidata": "Q116394553"
      },
      "geometry": {
        "type": "Point",
        "coordinates": [
          13.4133622,
          52.4372123
        ]
      }
    },
    {
      "type": "Feature",
      "properties": {
        "weight": 1.0,
        "id": 3917330120,
        "hasDetails": true,
        "name": "Steglitz Museum",
        "address": "Drakestra\u00dfe 64a, Berlin",
        "website": "https://www.heimatverein-steglitz.de/",
        "opening_hours": "Tu-Fr 15:00-18:00; Su 15:00-18:00",
        "wikidata": "Q76632567"
      },
      "geometry": {
        "type": "Point",
        "coordinates": [
          13.3026687,
          52.4372564
        ]
      }
    },
    {
      "type": "Feature",
      "properties": {
        "weight": 1.0,
        "id": 5777054158,
        "hasDetails": true,
        "name": "Gespaltenes Dreieck",
        "website": "https://bildhauerei-in-berlin.de/bildwerk/gespaltenes-dreieck-4822/",
        "wikidata": "Q116445145"
      },
      "geometry": {
        "type": "Point",
        "coordinates": [
          13.4140606,
          52.4374791
        ]
      }
    },
    {
      "type": "Feature",
      "properties": {
        "weight": 1.0,
        "id": 12770039749,
        "hasDetails": true,
        "name": "prideART Berlin",
        "address": "S\u00f6htstra\u00dfe 7",
        "website": "https://prideart.eu/"
      },
      "geometry": {
        "type": "Point",
        "coordinates": [
          13.3083501,
          52.43779
        ]
      }
    },
    {
      "type": "Feature",
      "properties": {
        "weight": 1.0,
        "id": 12827179768,
        "hasDetails": true,
        "name": "Mensch-Tier-Pflanze",
        "wikidata": "Q116272050"
      },
      "geometry": {
        "type": "Point",
        "coordinates": [
          13.4226778,
          52.4379932
        ]
      }
    },
    {
      "type": "Feature",
      "properties": {
        "weight": 1.0,
        "id": 766875174,
        "hasDetails": true,
        "name": "Anna-Seghers-Gedenkst\u00e4tte",
        "address": "Anna-Seghers-Stra\u00dfe 81, Berlin",
        "website": "https://anna-seghers.de/anna-seghers/anna-seghers-museum/",
        "opening_hours": "Tu,Th 10:00-16:00",
        "wikidata": "Q76632408"
      },
      "geometry": {
        "type": "Point",
        "coordinates": [
          13.5407192,
          52.4381707
        ]
      }
    },
    {
      "type": "Feature",
      "properties": {
        "weight": 1.0,
        "id": 12152156175,
        "hasDetails": true,
        "name": "Spiegelwelten",
        "wikidata": "Q110425463"
      },
      "geometry": {
        "type": "Point",
        "coordinates": [
          13.5105324,
          52.4385405
        ]
      }
    },
    {
      "type": "Feature",
      "properties": {
        "weight": 1.0,
        "id": 13480359639,
        "hasDetails": true,
        "name": "No Stars but Stripes",
        "wikidata": "Q137861019"
      },
      "geometry": {
        "type": "Point",
        "coordinates": [
          13.3480587,
          52.4385666
        ]
      }
    },
    {
      "type": "Feature",
      "properties": {
        "weight": 1.0
      },
      "geometry": {
        "type": "Point",
        "coordinates": [
          13.2041669,
          52.438582
        ]
      }
    },
    {
      "type": "Feature",
      "properties": {
        "weight": 1.0,
        "id": 6515239377,
        "hasDetails": true,
        "name": "Ei im Nest",
        "wikidata": "Q123378917"
      },
      "geometry": {
        "type": "Point",
        "coordinates": [
          13.4734829,
          52.4387487
        ]
      }
    },
    {
      "type": "Feature",
      "properties": {
        "weight": 1.0,
        "id": 6458668804,
        "hasDetails": true,
        "name": "Tableau der Erinnerung",
        "website": "https://bildhauerei-in-berlin.de/bildwerk/kosmologischer-park-4846/"
      },
      "geometry": {
        "type": "Point",
        "coordinates": [
          13.4235322,
          52.4387993
        ]
      }
    },
    {
      "type": "Feature",
      "properties": {
        "weight": 1.0
      },
      "geometry": {
        "type": "Point",
        "coordinates": [
          13.2147126,
          52.4389839
        ]
      }
    },
    {
      "type": "Feature",
      "properties": {
        "weight": 1.0,
        "id": 12844224052,
        "hasDetails": true,
        "name": "Galerie Alte Schule Adlershof",
        "website": "https://galerie-alte-schule-adlershof.de/",
        "opening_hours": "Tu,We,Th 12:00-19:00; Fr 12:00-17:00; Sa 15:00-19:00"
      },
      "geometry": {
        "type": "Point",
        "coordinates": [
          13.5500841,
          52.4390018
        ]
      }
    },
    {
      "type": "Feature",
      "properties": {
        "weight": 1.0,
        "id": 9693101662,
        "hasDetails": true,
        "name": "Fundst\u00fccke \u2013 Granitr\u00e4der",
        "website": "https://bildhauerei-in-berlin.de/bildwerk/fundstuecke-granitraeder-5121/",
        "wikidata": "Q116272050"
      },
      "geometry": {
        "type": "Point",
        "coordinates": [
          13.4230842,
          52.4390028
        ]
      }
    },
    {
      "type": "Feature",
      "properties": {
        "weight": 1.0,
        "id": 6445973327,
        "hasDetails": true,
        "name": "Stehende Figur",
        "website": "https://bildhauerei-in-berlin.de/bildwerk/stehende-figur-7363/",
        "wikidata": "Q109822073"
      },
      "geometry": {
        "type": "Point",
        "coordinates": [
          13.59505,
          52.43902
        ]
      }
    },
    {
      "type": "Feature",
      "properties": {
        "weight": 1.0,
        "id": 12840380319,
        "hasDetails": true,
        "website": "https://bildhauerei-in-berlin.de/bildwerk/victor-jara-8059/"
      },
      "geometry": {
        "type": "Point",
        "coordinates": [
          13.6057142,
          52.4390446
        ]
      }
    },
    {
      "type": "Feature",
      "properties": {
        "weight": 1.0,
        "id": 2660991984,
        "hasDetails": true,
        "name": "Sonnenuhr",
        "amenity": "clock",
        "wikidata": "Q112943551"
      },
      "geometry": {
        "type": "Point",
        "coordinates": [
          13.5995722,
          52.4391354
        ]
      }
    },
    {
      "type": "Feature",
      "properties": {
        "weight": 1.0,
        "id": 6445973328,
        "hasDetails": true,
        "name": "Knabe mit Geige",
        "website": "https://bildhauerei-in-berlin.de/bildwerk/knabe-mit-geige-6776/",
        "wikidata": "Q110008106"
      },
      "geometry": {
        "type": "Point",
        "coordinates": [
          13.5956,
          52.43929
        ]
      }
    },
    {
      "type": "Feature",
      "properties": {
        "weight": 1.0
      },
      "geometry": {
        "type": "Point",
        "coordinates": [
          13.5012814,
          52.4395456
        ]
      }
    },
    {
      "type": "Feature",
      "properties": {
        "weight": 1.0,
        "id": 6522039698,
        "hasDetails": true,
        "name": "Tempelhof Museum",
        "address": "Alt-Mariendorf 43, Berlin",
        "website": "https://www.museen-tempelhof-schoeneberg.de/uebersicht-tempelhof-museum.html",
        "opening_hours": "Tu,We 13:00-18:00; Th 10:00-18:00; Fr-Su 13:00-18:00",
        "wikidata": "Q76632506"
      },
      "geometry": {
        "type": "Point",
        "coordinates": [
          13.3854756,
          52.4395718
        ]
      }
    },
    {
      "type": "Feature",
      "properties": {
        "weight": 1.0,
        "id": 6445973329,
        "hasDetails": true,
        "name": "Genesender",
        "website": "https://bildhauerei-in-berlin.de/bildwerk/genesender-7362/",
        "wikidata": "Q109816483"
      },
      "geometry": {
        "type": "Point",
        "coordinates": [
          13.59545,
          52.43959
        ]
      }
    },
    {
      "type": "Feature",
      "properties": {
        "weight": 1.0,
        "id": 6445973331,
        "hasDetails": true,
        "name": "Bathseba",
        "website": "https://bildhauerei-in-berlin.de/bildwerk/bathseba-7344/",
        "wikidata": "Q109830627"
      },
      "geometry": {
        "type": "Point",
        "coordinates": [
          13.5944749,
          52.4397146
        ]
      }
    },
    {
      "type": "Feature",
      "properties": {
        "weight": 1.0,
        "id": 6445973330,
        "hasDetails": true,
        "name": "Sich sch\u00fctzender Knabe",
        "website": "https://bildhauerei-in-berlin.de/bildwerk/sich-schuetzender-knabe-7345/"
      },
      "geometry": {
        "type": "Point",
        "coordinates": [
          13.59513,
          52.43974
        ]
      }
    },
    {
      "type": "Feature",
      "properties": {
        "weight": 1.0
      },
      "geometry": {
        "type": "Point",
        "coordinates": [
          13.3448482,
          52.4398234
        ]
      }
    },
    {
      "type": "Feature",
      "properties": {
        "weight": 1.0,
        "id": 6445973326,
        "hasDetails": true,
        "name": "Tag und Nacht",
        "website": "https://bildhauerei-in-berlin.de/bildwerk/tag-und-nacht-6777/",
        "wikidata": "Q139253935"
      },
      "geometry": {
        "type": "Point",
        "coordinates": [
          13.5963035,
          52.4398587
        ]
      }
    },
    {
      "type": "Feature",
      "properties": {
        "weight": 1.0
      },
      "geometry": {
        "type": "Point",
        "coordinates": [
          13.4489066,
          52.4400965
        ]
      }
    },
    {
      "type": "Feature",
      "properties": {
        "weight": 1.0,
        "id": 3817568959,
        "hasDetails": true,
        "name": "Lebensfreude",
        "wikidata": "Q112943478"
      },
      "geometry": {
        "type": "Point",
        "coordinates": [
          13.593739,
          52.440117
        ]
      }
    },
    {
      "type": "Feature",
      "properties": {
        "weight": 1.0,
        "id": 13367091772,
        "hasDetails": true,
        "name": "Gro\u00dfes Idol",
        "wikidata": "Q110553979"
      },
      "geometry": {
        "type": "Point",
        "coordinates": [
          13.3947989,
          52.4403664
        ]
      }
    },
    {
      "type": "Feature",
      "properties": {
        "weight": 1.0,
        "id": 12861139819,
        "hasDetails": true,
        "name": "Lesender J\u00fcngling",
        "website": "https://bildhauerei-in-berlin.de/bildwerk/ponyhengst-6951/"
      },
      "geometry": {
        "type": "Point",
        "coordinates": [
          13.4982175,
          52.4403984
        ]
      }
    },
    {
      "type": "Feature",
      "properties": {
        "weight": 1.0,
        "id": 7376820329,
        "hasDetails": true,
        "name": "Aufbauhelferin",
        "website": "https://bildhauerei-in-berlin.de/bildwerk/aufbauhelferin-6950/",
        "wikidata": "Q110222594"
      },
      "geometry": {
        "type": "Point",
        "coordinates": [
          13.4994172,
          52.4404826
        ]
      }
    },
    {
      "type": "Feature",
      "properties": {
        "weight": 1.0
      },
      "geometry": {
        "type": "Point",
        "coordinates": [
          13.5954901,
          52.4404837
        ]
      }
    },
    {
      "type": "Feature",
      "properties": {
        "weight": 1.0,
        "id": 13367091771,
        "hasDetails": true,
        "name": "Gruppe 84",
        "wikidata": "Q110555449"
      },
      "geometry": {
        "type": "Point",
        "coordinates": [
          13.3949098,
          52.4404866
        ]
      }
    },
    {
      "type": "Feature",
      "properties": {
        "weight": 1.0,
        "id": 2845403101,
        "hasDetails": true,
        "name": "Judo Welt-Museum",
        "address": "Alt-Mariendorf 21",
        "website": "http://www.judo-museum.de/",
        "opening_hours": "Mo,Tu,Th 17:00-21:00;We,Fr 16:00-23:00; Sa,Su, PH off"
      },
      "geometry": {
        "type": "Point",
        "coordinates": [
          13.3911183,
          52.440493
        ]
      }
    },
    {
      "type": "Feature",
      "properties": {
        "weight": 1.0,
        "id": 12848593370,
        "hasDetails": true,
        "name": "Ponyhengst",
        "website": "https://bildhauerei-in-berlin.de/bildwerk/ponyhengst-6951/"
      },
      "geometry": {
        "type": "Point",
        "coordinates": [
          13.4979126,
          52.4405482
        ]
      }
    },
    {
      "type": "Feature",
      "properties": {
        "weight": 1.0,
        "id": 6393758275,
        "hasDetails": true,
        "name": "Stute mit Fohlen",
        "website": "https://bildhauerei-in-berlin.de/bildwerk/stute-mit-fohlen-6955/",
        "wikidata": "Q115789756"
      },
      "geometry": {
        "type": "Point",
        "coordinates": [
          13.5363699,
          52.4405529
        ]
      }
    },
    {
      "type": "Feature",
      "properties": {
        "weight": 1.0,
        "id": 7464707585,
        "hasDetails": true,
        "name": "Russisches M\u00e4dchen",
        "website": "https://bildhauerei-in-berlin.de/bildwerk/im-feld-6949/"
      },
      "geometry": {
        "type": "Point",
        "coordinates": [
          13.4999724,
          52.4405668
        ]
      }
    },
    {
      "type": "Feature",
      "properties": {
        "weight": 1.0,
        "id": 12840380317,
        "hasDetails": true,
        "name": "Plastisches Ensemble",
        "website": "https://bildhauerei-in-berlin.de/bildwerk/plastisches-ensemble-8083/",
        "wikidata": "Q135297564"
      },
      "geometry": {
        "type": "Point",
        "coordinates": [
          13.5776902,
          52.440652
        ]
      }
    },
    {
      "type": "Feature",
      "properties": {
        "weight": 1.0
      },
      "geometry": {
        "type": "Point",
        "coordinates": [
          13.6221993,
          52.4411742
        ]
      }
    },
    {
      "type": "Feature",
      "properties": {
        "weight": 1.0
      },
      "geometry": {
        "type": "Point",
        "coordinates": [
          13.3950307,
          52.4413168
        ]
      }
    },
    {
      "type": "Feature",
      "properties": {
        "weight": 1.0,
        "id": 31283095,
        "hasDetails": true,
        "name": "Haus am Waldsee",
        "address": "Argentinische Allee 30, Berlin",
        "website": "https://www.hausamwaldsee.de/",
        "opening_hours": "Tu-Su 11:00-18:00",
        "wikidata": "Q1590720",
        "wikipedia": "de:Haus am Waldsee"
      },
      "geometry": {
        "type": "Point",
        "coordinates": [
          13.2385115,
          52.4420682
        ]
      }
    },
    {
      "type": "Feature",
      "properties": {
        "weight": 1.0
      },
      "geometry": {
        "type": "Point",
        "coordinates": [
          13.2381486,
          52.4421547
        ]
      }
    },
    {
      "type": "Feature",
      "properties": {
        "weight": 1.0,
        "id": 6389108831,
        "hasDetails": true,
        "name": "Ged\u00e4chtnisurne der Marianne von Schmettau",
        "wikidata": "Q111397025"
      },
      "geometry": {
        "type": "Point",
        "coordinates": [
          13.5729737,
          52.442317
        ]
      }
    },
    {
      "type": "Feature",
      "properties": {
        "weight": 1.0,
        "id": 7837386128,
        "hasDetails": true,
        "name": "Fl\u00fcgels\u00e4ule",
        "wikidata": "Q123172935"
      },
      "geometry": {
        "type": "Point",
        "coordinates": [
          13.2380761,
          52.4423195
        ]
      }
    },
    {
      "type": "Feature",
      "properties": {
        "weight": 1.0,
        "id": 6358821411,
        "hasDetails": true,
        "name": "H\u00fchnerdieb",
        "wikidata": "Q115865309"
      },
      "geometry": {
        "type": "Point",
        "coordinates": [
          13.5720698,
          52.4423926
        ]
      }
    },
    {
      "type": "Feature",
      "properties": {
        "weight": 1.0,
        "id": 5802583814,
        "hasDetails": true,
        "name": "Zwei Giraffen",
        "website": "https://bildhauerei-in-berlin.de/bildwerk/zwei-giraffen-8517/",
        "wikidata": "Q115174037"
      },
      "geometry": {
        "type": "Point",
        "coordinates": [
          13.5727488,
          52.4423982
        ]
      }
    },
    {
      "type": "Feature",
      "properties": {
        "weight": 1.0
      },
      "geometry": {
        "type": "Point",
        "coordinates": [
          13.3282882,
          52.4424119
        ]
      }
    },
    {
      "type": "Feature",
      "properties": {
        "weight": 1.0,
        "id": 6358821410,
        "hasDetails": true,
        "name": "Reiherbaum",
        "wikidata": "Q115180545"
      },
      "geometry": {
        "type": "Point",
        "coordinates": [
          13.57317,
          52.4425
        ]
      }
    },
    {
      "type": "Feature",
      "properties": {
        "weight": 1.0
      },
      "geometry": {
        "type": "Point",
        "coordinates": [
          13.3875817,
          52.4426205
        ]
      }
    },
    {
      "type": "Feature",
      "properties": {
        "weight": 1.0,
        "id": 6467775271,
        "hasDetails": true,
        "name": "Salvador Allende",
        "website": "https://bildhauerei-in-berlin.de/bildwerk/denkmal-salvador-allende-8107/",
        "wikidata": "Q111671751"
      },
      "geometry": {
        "type": "Point",
        "coordinates": [
          13.5897981,
          52.4426566
        ]
      }
    },
    {
      "type": "Feature",
      "properties": {
        "weight": 1.0,
        "id": 12836949183,
        "hasDetails": true,
        "name": "Chile",
        "website": "https://bildhauerei-in-berlin.de/bildwerk/chile-8106/"
      },
      "geometry": {
        "type": "Point",
        "coordinates": [
          13.5887671,
          52.4428028
        ]
      }
    },
    {
      "type": "Feature",
      "properties": {
        "weight": 1.0
      },
      "geometry": {
        "type": "Point",
        "coordinates": [
          13.3869609,
          52.44282
        ]
      }
    },
    {
      "type": "Feature",
      "properties": {
        "weight": 1.0,
        "id": 6358821412,
        "hasDetails": true,
        "name": "Torso",
        "wikidata": "Q109676270"
      },
      "geometry": {
        "type": "Point",
        "coordinates": [
          13.57289,
          52.44328
        ]
      }
    },
    {
      "type": "Feature",
      "properties": {
        "weight": 1.0,
        "id": 6358821409,
        "hasDetails": true,
        "name": "Kinder mit Schildkr\u00f6te",
        "wikidata": "Q115685531"
      },
      "geometry": {
        "type": "Point",
        "coordinates": [
          13.57341,
          52.44339
        ]
      }
    },
    {
      "type": "Feature",
      "properties": {
        "weight": 1.0,
        "id": 45524990,
        "hasDetails": true,
        "name": "Energie-Museum",
        "address": "Teltowkanalstra\u00dfe 9, Berlin",
        "website": "https://www.energie-museum.de/",
        "opening_hours": "\"Nach Anmeldung per E-Mail\"",
        "wikidata": "Q1341197",
        "wikipedia": "de:Energie-Museum Berlin"
      },
      "geometry": {
        "type": "Point",
        "coordinates": [
          13.3299736,
          52.4434466
        ]
      }
    },
    {
      "type": "Feature",
      "properties": {
        "weight": 1.0,
        "id": 559613172,
        "hasDetails": true,
        "name": "Heimatmuseum Treptow",
        "address": "Sterndamm 102, Berlin",
        "website": "https://www.berlin.de/museum-treptow-koepenick/museen/museum-treptow/",
        "opening_hours": "Mo,Tu 10:00-16:00, Th 10:00-18:00, Sa,Su 14:00-18:00"
      },
      "geometry": {
        "type": "Point",
        "coordinates": [
          13.5022281,
          52.4434519
        ]
      }
    },
    {
      "type": "Feature",
      "properties": {
        "weight": 1.0,
        "id": 6966390492,
        "hasDetails": true,
        "name": "Der Rufer, der Seher, der Schn\u00fcffler",
        "website": "https://bildhauerei-in-berlin.de/bildwerk/der-rufer-der-seher-der-schnueffler-6948/",
        "wikidata": "Q110484423"
      },
      "geometry": {
        "type": "Point",
        "coordinates": [
          13.5024494,
          52.4435024
        ]
      }
    },
    {
      "type": "Feature",
      "properties": {
        "weight": 1.0,
        "id": 3561951258,
        "hasDetails": true,
        "name": "Drei Nadeln",
        "website": "https://bildhauerei-in-berlin.de/bildwerk/drei-nadeln-6947/",
        "wikidata": "Q110445008"
      },
      "geometry": {
        "type": "Point",
        "coordinates": [
          13.503411,
          52.4435287
        ]
      }
    },
    {
      "type": "Feature",
      "properties": {
        "weight": 1.0
      },
      "geometry": {
        "type": "Point",
        "coordinates": [
          13.5654652,
          52.4436054
        ]
      }
    },
    {
      "type": "Feature",
      "properties": {
        "weight": 1.0,
        "id": 6358821413,
        "hasDetails": true,
        "name": "Meleagerstatue",
        "wikidata": "Q110006973"
      },
      "geometry": {
        "type": "Point",
        "coordinates": [
          13.5732676,
          52.4436308
        ]
      }
    },
    {
      "type": "Feature",
      "properties": {
        "weight": 1.0,
        "id": 2218406748,
        "hasDetails": true,
        "name": "Goldesel",
        "website": "https://bildhauerei-in-berlin.de/bildwerk/goldesel-4842/",
        "wikidata": "Q116431106"
      },
      "geometry": {
        "type": "Point",
        "coordinates": [
          13.4333181,
          52.4438398
        ]
      }
    },
    {
      "type": "Feature",
      "properties": {
        "weight": 1.0,
        "id": 12841539298,
        "hasDetails": true,
        "name": "Glaube und Liebe",
        "website": "https://bildhauerei-in-berlin.de/bildwerk/glaube-und-liebe-10944/",
        "names": [
          "Glaube und Liebe",
          "Schloss K\u00f6penick"
        ]
      },
      "geometry": {
        "type": "Point",
        "coordinates": [
          13.5728472,
          52.4438427
        ]
      }
    },
    {
      "type": "Feature",
      "properties": {
        "weight": 1.0,
        "id": 13299092952,
        "hasDetails": true,
        "wikidata": "Q136766620"
      },
      "geometry": {
        "type": "Point",
        "coordinates": [
          13.3827542,
          52.4439742
        ]
      }
    },
    {
      "type": "Feature",
      "properties": {
        "weight": 1.0,
        "id": 1505273433,
        "hasDetails": true,
        "name": "Kunstgewerbemuseum",
        "website": "https://www.smb.museum/museen-einrichtungen/kunstgewerbemuseum/home",
        "opening_hours": "Oct-Mar: Th-Su 11:00-17:00; Apr-Sep: We-Fr 11:00-17:00; Apr-Sep: Sa,Su 11:00-18:00"
      },
      "geometry": {
        "type": "Point",
        "coordinates": [
          13.5728521,
          52.4440329
        ]
      }
    },
    {
      "type": "Feature",
      "properties": {
        "weight": 1.0,
        "id": 6358821407,
        "hasDetails": true,
        "name": "W\u00e4scherin",
        "website": "https://bildhauerei-in-berlin.de/bildwerk/waescherin-9582/",
        "wikidata": "Q113459141"
      },
      "geometry": {
        "type": "Point",
        "coordinates": [
          13.5745055,
          52.4440787
        ]
      }
    },
    {
      "type": "Feature",
      "properties": {
        "weight": 1.0
      },
      "geometry": {
        "type": "Point",
        "coordinates": [
          13.5788814,
          52.4441059
        ]
      }
    },
    {
      "type": "Feature",
      "properties": {
        "weight": 1.0
      },
      "geometry": {
        "type": "Point",
        "coordinates": [
          13.57538,
          52.44414
        ]
      }
    },
    {
      "type": "Feature",
      "properties": {
        "weight": 1.0
      },
      "geometry": {
        "type": "Point",
        "coordinates": [
          13.6250884,
          52.44417
        ]
      }
    },
    {
      "type": "Feature",
      "properties": {
        "weight": 1.0
      },
      "geometry": {
        "type": "Point",
        "coordinates": [
          13.5738549,
          52.4442668
        ]
      }
    },
    {
      "type": "Feature",
      "properties": {
        "weight": 1.0
      },
      "geometry": {
        "type": "Point",
        "coordinates": [
          13.5796598,
          52.4442884
        ]
      }
    },
    {
      "type": "Feature",
      "properties": {
        "weight": 1.0
      },
      "geometry": {
        "type": "Point",
        "coordinates": [
          13.5781225,
          52.4443277
        ]
      }
    },
    {
      "type": "Feature",
      "properties": {
        "weight": 1.0
      },
      "geometry": {
        "type": "Point",
        "coordinates": [
          13.5783415,
          52.4443288
        ]
      }
    },
    {
      "type": "Feature",
      "properties": {
        "weight": 1.0
      },
      "geometry": {
        "type": "Point",
        "coordinates": [
          13.5779385,
          52.4443835
        ]
      }
    },
    {
      "type": "Feature",
      "properties": {
        "weight": 1.0
      },
      "geometry": {
        "type": "Point",
        "coordinates": [
          13.5786474,
          52.4444278
        ]
      }
    },
    {
      "type": "Feature",
      "properties": {
        "weight": 1.0
      },
      "geometry": {
        "type": "Point",
        "coordinates": [
          13.5788004,
          52.444475
        ]
      }
    },
    {
      "type": "Feature",
      "properties": {
        "weight": 1.0,
        "id": 2949567745,
        "hasDetails": true,
        "name": "Vater mit Kind",
        "website": "https://bildhauerei-in-berlin.de/bildwerk/vater-mit-kind-8079/",
        "wikidata": "Q81743192"
      },
      "geometry": {
        "type": "Point",
        "coordinates": [
          13.6265849,
          52.4445707
        ]
      }
    },
    {
      "type": "Feature",
      "properties": {
        "weight": 1.0,
        "id": 6376026484,
        "hasDetails": true,
        "name": "Wilde Pferde",
        "website": "https://bildhauerei-in-berlin.de/bildwerk/wilde-pferde-6799/",
        "wikidata": "Q115866007"
      },
      "geometry": {
        "type": "Point",
        "coordinates": [
          13.574012,
          52.444654
        ]
      }
    },
    {
      "type": "Feature",
      "properties": {
        "weight": 1.0,
        "id": 4749370563,
        "hasDetails": true,
        "name": "Wilde Pferde",
        "website": "https://bildhauerei-in-berlin.de/bildwerk/wilde-pferde-6799/",
        "wikidata": "Q115866007"
      },
      "geometry": {
        "type": "Point",
        "coordinates": [
          13.5742642,
          52.4447686
        ]
      }
    },
    {
      "type": "Feature",
      "properties": {
        "weight": 1.0,
        "id": 4532944246,
        "hasDetails": true,
        "name": "TIME-LINE",
        "wikidata": "Q136440943"
      },
      "geometry": {
        "type": "Point",
        "coordinates": [
          13.4426433,
          52.4448718
        ]
      }
    },
    {
      "type": "Feature",
      "properties": {
        "weight": 1.0,
        "id": 10731023028,
        "hasDetails": true,
        "name": "Buddy Bear",
        "website": "https://www.buddy-baer.com/de/classic-buddy-bears/bbb-bear-single/2893/1876",
        "wikidata": "Q152445",
        "wikipedia": "de:Buddy B\u00e4r"
      },
      "geometry": {
        "type": "Point",
        "coordinates": [
          13.5744779,
          52.4448961
        ]
      }
    },
    {
      "type": "Feature",
      "properties": {
        "weight": 1.0,
        "id": 4848984608,
        "hasDetails": true,
        "name": "Geschwister",
        "website": "https://bildhauerei-in-berlin.de/bildwerk/geschwister-8080/"
      },
      "geometry": {
        "type": "Point",
        "coordinates": [
          13.6274346,
          52.445077
        ]
      }
    },
    {
      "type": "Feature",
      "properties": {
        "weight": 1.0,
        "id": 6348033626,
        "hasDetails": true,
        "name": "Maja",
        "website": "https://bildhauerei-in-berlin.de/bildwerk/maja-7346/",
        "wikidata": "Q109829219"
      },
      "geometry": {
        "type": "Point",
        "coordinates": [
          13.5793307,
          52.445235
        ]
      }
    },
    {
      "type": "Feature",
      "properties": {
        "weight": 1.0,
        "id": 4532944245,
        "hasDetails": true,
        "name": "Ontologia",
        "wikidata": "Q111279934"
      },
      "geometry": {
        "type": "Point",
        "coordinates": [
          13.4418813,
          52.445277
        ]
      }
    },
    {
      "type": "Feature",
      "properties": {
        "weight": 1.0,
        "id": 5477244581,
        "hasDetails": true,
        "name": "Tauthaus",
        "address": "Parchimer Allee 85b",
        "website": "http://www.kunstimtauthaus.de/projektraum/ein-haus-im-weltkulturerbe/"
      },
      "geometry": {
        "type": "Point",
        "coordinates": [
          13.4470296,
          52.4452795
        ]
      }
    },
    {
      "type": "Feature",
      "properties": {
        "weight": 1.0,
        "id": 297049901,
        "hasDetails": true,
        "name": "Heimatmuseum K\u00f6penick",
        "address": "Alter Markt 1, Berlin",
        "website": "https://www.berlin.de/museum-treptow-koepenick/museen/museum-koepenick/",
        "opening_hours": "Tu,We 10:00-16:00; Th 10:00-18:00; Su 14:00-18:00",
        "wikidata": "Q76632446"
      },
      "geometry": {
        "type": "Point",
        "coordinates": [
          13.5790965,
          52.4453638
        ]
      }
    },
    {
      "type": "Feature",
      "properties": {
        "weight": 1.0,
        "id": 57493,
        "hasDetails": true,
        "name": "Rathaus K\u00f6penick",
        "amenity": "townhall",
        "address": "Alt-K\u00f6penick 21, Berlin",
        "wikidata": "Q1273780"
      },
      "geometry": {
        "type": "Point",
        "coordinates": [
          13.5749341,
          52.4454295
        ]
      }
    },
    {
      "type": "Feature",
      "properties": {
        "weight": 1.0
      },
      "geometry": {
        "type": "Point",
        "coordinates": [
          13.5821208,
          52.4454632
        ]
      }
    },
    {
      "type": "Feature",
      "properties": {
        "weight": 1.0,
        "id": 4532944244,
        "hasDetails": true,
        "name": "S\u00e4ulenreihe",
        "wikidata": "Q123414346"
      },
      "geometry": {
        "type": "Point",
        "coordinates": [
          13.4421285,
          52.4454649
        ]
      }
    },
    {
      "type": "Feature",
      "properties": {
        "weight": 1.0,
        "id": 6336000653,
        "hasDetails": true,
        "name": "Die Kugelspielerin",
        "website": "https://bildhauerei-in-berlin.de/bildwerk/kugelspielerin-9584/",
        "wikidata": "Q100324339"
      },
      "geometry": {
        "type": "Point",
        "coordinates": [
          13.5740024,
          52.4455397
        ]
      }
    },
    {
      "type": "Feature",
      "properties": {
        "weight": 1.0,
        "id": 13180463907,
        "hasDetails": true,
        "name": "\u00c4skulap",
        "wikidata": "Q110929989"
      },
      "geometry": {
        "type": "Point",
        "coordinates": [
          13.3791281,
          52.4455983
        ]
      }
    },
    {
      "type": "Feature",
      "properties": {
        "weight": 1.0,
        "id": 13952831701,
        "hasDetails": true,
        "name": "Hauptmannausstellung",
        "address": "Alt-K\u00f6penick 21",
        "website": "https://www.berlin.de/museum-treptow-koepenick/museen/hauptmannausstellung/"
      },
      "geometry": {
        "type": "Point",
        "coordinates": [
          13.5747391,
          52.4456666
        ]
      }
    },
    {
      "type": "Feature",
      "properties": {
        "weight": 1.0
      },
      "geometry": {
        "type": "Point",
        "coordinates": [
          13.5788115,
          52.4456788
        ]
      }
    },
    {
      "type": "Feature",
      "properties": {
        "weight": 1.0,
        "id": 536404808,
        "hasDetails": true,
        "name": "Hauptmann von K\u00f6penick",
        "website": "https://bildhauerei-in-berlin.de/bildwerk/hauptmann-von-koepenick-9583/",
        "wikidata": "Q110163243"
      },
      "geometry": {
        "type": "Point",
        "coordinates": [
          13.5747384,
          52.4457848
        ]
      }
    },
    {
      "type": "Feature",
      "properties": {
        "weight": 1.0,
        "id": 27120308,
        "hasDetails": true,
        "name": "Museum Neuk\u00f6lln",
        "address": "Alt-Britz 81, Berlin",
        "website": "https://schloss-gutshof-britz.de/museum-neukoelln",
        "opening_hours": "10:00-18:00",
        "wikidata": "Q15121282"
      },
      "geometry": {
        "type": "Point",
        "coordinates": [
          13.4377781,
          52.4459653
        ]
      }
    },
    {
      "type": "Feature",
      "properties": {
        "weight": 1.0,
        "id": 6341236836,
        "hasDetails": true,
        "name": "Leben in K\u00f6penick",
        "website": "https://bildhauerei-in-berlin.de/bildwerk/leben-in-koepenick-9581/"
      },
      "geometry": {
        "type": "Point",
        "coordinates": [
          13.5636149,
          52.4459891
        ]
      }
    },
    {
      "type": "Feature",
      "properties": {
        "weight": 1.0
      },
      "geometry": {
        "type": "Point",
        "coordinates": [
          13.5525722,
          52.4460675
        ]
      }
    },
    {
      "type": "Feature",
      "properties": {
        "weight": 1.0
      },
      "geometry": {
        "type": "Point",
        "coordinates": [
          13.3586231,
          52.4461148
        ]
      }
    },
    {
      "type": "Feature",
      "properties": {
        "weight": 1.0,
        "id": 6352060581,
        "hasDetails": true,
        "name": "Pantherkatze",
        "website": "https://bildhauerei-in-berlin.de/bildwerk/pantherkatze-7357/",
        "wikidata": "Q115691662"
      },
      "geometry": {
        "type": "Point",
        "coordinates": [
          13.5737994,
          52.4461738
        ]
      }
    },
    {
      "type": "Feature",
      "properties": {
        "weight": 1.0
      },
      "geometry": {
        "type": "Point",
        "coordinates": [
          13.5238262,
          52.4461892
        ]
      }
    },
    {
      "type": "Feature",
      "properties": {
        "weight": 1.0,
        "id": 1416963553,
        "hasDetails": true,
        "name": "Begegnung",
        "wikidata": "Q121600808"
      },
      "geometry": {
        "type": "Point",
        "coordinates": [
          13.3358046,
          52.4462374
        ]
      }
    },
    {
      "type": "Feature",
      "properties": {
        "weight": 1.0
      },
      "geometry": {
        "type": "Point",
        "coordinates": [
          13.6016262,
          52.4462375
        ]
      }
    },
    {
      "type": "Feature",
      "properties": {
        "weight": 1.0
      },
      "geometry": {
        "type": "Point",
        "coordinates": [
          13.4378484,
          52.4464101
        ]
      }
    },
    {
      "type": "Feature",
      "properties": {
        "weight": 1.0
      },
      "geometry": {
        "type": "Point",
        "coordinates": [
          13.523355,
          52.4464836
        ]
      }
    },
    {
      "type": "Feature",
      "properties": {
        "weight": 1.0,
        "id": 9999046527,
        "hasDetails": true,
        "name": "Ballspieler",
        "wikidata": "Q116209981"
      },
      "geometry": {
        "type": "Point",
        "coordinates": [
          13.2526966,
          52.4465082
        ]
      }
    },
    {
      "type": "Feature",
      "properties": {
        "weight": 1.0,
        "id": 6352060580,
        "hasDetails": true,
        "name": "Fischer",
        "website": "https://bildhauerei-in-berlin.de/bildwerk/fischer-6780/",
        "wikidata": "Q111148815"
      },
      "geometry": {
        "type": "Point",
        "coordinates": [
          13.5740569,
          52.446558
        ]
      }
    },
    {
      "type": "Feature",
      "properties": {
        "weight": 1.0,
        "id": 12836949186,
        "hasDetails": true,
        "name": "Agitator",
        "website": "https://bildhauerei-in-berlin.de/bildwerk/agitator-7380/"
      },
      "geometry": {
        "type": "Point",
        "coordinates": [
          13.6019145,
          52.4466302
        ]
      }
    },