{
  "type": "FeatureCollection",
  "features": [
    {
      "type": "Feature",
      "properties": {
        "weight": 1.0,
        "id": 296763927,
        "hasDetails": true,
        "name": "Ve\u010derka",
        "address": "Sliveneck\u00e1 169/3"
      },
      "geometry": {
        "type": "Point",
        "coordinates": [
          14.3939739,
          50.0410622
        ]
      }
    },
    {
      "type": "Feature",
      "properties": {
        "weight": 1.0,
        "id": 296785682,
        "hasDetails": true,
        "name": "Potraviny",
        "address": "Sliveneck\u00e1 62/2",
        "opening_hours": "Mo-Su 09:00-20:00"
      },
      "geometry": {
        "type": "Point",
        "coordinates": [
          14.3937555,
          50.0411608
        ]
      }
    },
    {
      "type": "Feature",
      "properties": {
        "weight": 1.0
      },
      "geometry": {
        "type": "Point",
        "coordinates": [
          14.4382559,
          50.0411622
        ]
      }
    },
    {
      "type": "Feature",
      "properties": {
        "weight": 1.0,
        "id": 4176623092,
        "hasDetails": true,
        "name": "penta",
        "address": "Antala Sta\u0161ka 1075/41A",
        "website": "https://www.penta.cz/",
        "opening_hours": "Mo-Fr 08:00-18:00"
      },
      "geometry": {
        "type": "Point",
        "coordinates": [
          14.4413283,
          50.0411641
        ]
      }
    },
    {
      "type": "Feature",
      "properties": {
        "weight": 1.0,
        "id": 2862576407,
        "hasDetails": true,
        "name": "Hoffi Surf Shop",
        "address": "Mod\u0159ansk\u00e1 33/120, Praha",
        "website": "http://www.lyze-kola-windsurfing-in-line-hoffi.cz/"
      },
      "geometry": {
        "type": "Point",
        "coordinates": [
          14.411026,
          50.0412245
        ]
      }
    },
    {
      "type": "Feature",
      "properties": {
        "weight": 1.0
      },
      "geometry": {
        "type": "Point",
        "coordinates": [
          14.5111655,
          50.041326
        ]
      }
    },
    {
      "type": "Feature",
      "properties": {
        "weight": 1.0,
        "id": 5478153821,
        "hasDetails": true,
        "name": "AUTOTURIST a. s.",
        "address": "Na Str\u017ei 1837/9",
        "website": "https://www.autoturist.cz/",
        "opening_hours": "Mo-Fr 08:30-17:00"
      },
      "geometry": {
        "type": "Point",
        "coordinates": [
          14.4381435,
          50.0414667
        ]
      }
    },
    {
      "type": "Feature",
      "properties": {
        "weight": 1.0
      },
      "geometry": {
        "type": "Point",
        "coordinates": [
          14.4598129,
          50.0414693
        ]
      }
    },
    {
      "type": "Feature",
      "properties": {
        "weight": 1.0,
        "id": 4176641391,
        "hasDetails": true,
        "name": "Suma",
        "website": "https://www.sumanet.cz/",
        "opening_hours": "Mo-Fr 09:00-18:00"
      },
      "geometry": {
        "type": "Point",
        "coordinates": [
          14.4434025,
          50.0416224
        ]
      }
    },
    {
      "type": "Feature",
      "properties": {
        "weight": 1.0,
        "id": 296551312,
        "hasDetails": true,
        "name": "Breno",
        "address": "Antala Sta\u0161ka 1071/57a",
        "opening_hours": "Mo-Fr 09:00-19:00; Sa 09:00-13:00"
      },
      "geometry": {
        "type": "Point",
        "coordinates": [
          14.4444464,
          50.0418241
        ]
      }
    },
    {
      "type": "Feature",
      "properties": {
        "weight": 1.0
      },
      "geometry": {
        "type": "Point",
        "coordinates": [
          14.4388125,
          50.0418405
        ]
      }
    },
    {
      "type": "Feature",
      "properties": {
        "weight": 1.0,
        "id": 4176635095,
        "hasDetails": true,
        "name": "Le\u0161etick\u00fd",
        "address": "Antala Sta\u0161ka 63a, Praha",
        "website": "https://www.leseticky.cz/",
        "opening_hours": "Mo-We 07:00-14:00; Sa 07:00-11:00; Th,Fr 07:00-17:00"
      },
      "geometry": {
        "type": "Point",
        "coordinates": [
          14.4454827,
          50.0419809
        ]
      }
    },
    {
      "type": "Feature",
      "properties": {
        "weight": 1.0
      },
      "geometry": {
        "type": "Point",
        "coordinates": [
          14.3950921,
          50.0420022
        ]
      }
    },
    {
      "type": "Feature",
      "properties": {
        "weight": 1.0
      },
      "geometry": {
        "type": "Point",
        "coordinates": [
          14.4597682,
          50.0420142
        ]
      }
    },
    {
      "type": "Feature",
      "properties": {
        "weight": 1.0
      },
      "geometry": {
        "type": "Point",
        "coordinates": [
          14.3899819,
          50.0420271
        ]
      }
    },
    {
      "type": "Feature",
      "properties": {
        "weight": 1.0
      },
      "geometry": {
        "type": "Point",
        "coordinates": [
          14.4598348,
          50.0420999
        ]
      }
    },
    {
      "type": "Feature",
      "properties": {
        "weight": 1.0,
        "id": 290015889,
        "hasDetails": true,
        "name": "Relay",
        "opening_hours": "Mo-Fr 06:00-19:30; Sa 07:00-16:00; Su 08:00-17:00",
        "names": [
          "Relay",
          "Covertia"
        ]
      },
      "geometry": {
        "type": "Point",
        "coordinates": [
          14.4608865,
          50.0421107
        ]
      }
    },
    {
      "type": "Feature",
      "properties": {
        "weight": 1.0,
        "id": 4378078091,
        "hasDetails": true,
        "name": "Kade\u0159nictv\u00ed Al\u017eb\u011bta",
        "opening_hours": "Mo-Fr 09:00-19:00"
      },
      "geometry": {
        "type": "Point",
        "coordinates": [
          14.4947956,
          50.0421624
        ]
      }
    },
    {
      "type": "Feature",
      "properties": {
        "weight": 1.0,
        "id": 296471920,
        "hasDetails": true,
        "name": "M\u016fj obchod",
        "address": "Bla\u017eimsk\u00e1 3141/8",
        "opening_hours": "Mo-Su 07:00-21:00"
      },
      "geometry": {
        "type": "Point",
        "coordinates": [
          14.4945515,
          50.0421777
        ]
      }
    },
    {
      "type": "Feature",
      "properties": {
        "weight": 1.0,
        "id": 3464759954,
        "hasDetails": true,
        "name": "Chlupat\u00fd jelen",
        "address": "Antala Sta\u0161ka 1073/71a, Praha 4",
        "website": "https://chlupatyjelen.cz/",
        "opening_hours": "Mo-Fr 09:00-20:00; Sa 10:00-16:00"
      },
      "geometry": {
        "type": "Point",
        "coordinates": [
          14.4466841,
          50.042187
        ]
      }
    },
    {
      "type": "Feature",
      "properties": {
        "weight": 1.0,
        "id": 13429327717,
        "hasDetails": true,
        "name": "P\u016fj\u010dovna d\u011btsk\u00fdch pot\u0159eb - Vybav \u0161punta",
        "amenity": "baby_equipment_rental",
        "address": "Antala Sta\u0161ka 1357/78, Praha",
        "website": "https://www.vybavspunta.cz/",
        "opening_hours": "24/7"
      },
      "geometry": {
        "type": "Point",
        "coordinates": [
          14.4488611,
          50.0422277
        ]
      }
    },
    {
      "type": "Feature",
      "properties": {
        "weight": 1.0,
        "id": 3464728738,
        "hasDetails": true,
        "name": "Vinot\u00e9ka Soudek",
        "address": "Antala Sta\u0161ka 1357/78, Praha",
        "website": "https://www.vinotekasoudek.cz/",
        "opening_hours": "Mo-Fr 15:00-22:00; Sa-Su off"
      },
      "geometry": {
        "type": "Point",
        "coordinates": [
          14.4466252,
          50.0422706
        ]
      }
    },
    {
      "type": "Feature",
      "properties": {
        "weight": 1.0
      },
      "geometry": {
        "type": "Point",
        "coordinates": [
          14.3971069,
          50.0422795
        ]
      }
    },
    {
      "type": "Feature",
      "properties": {
        "weight": 1.0,
        "id": 12883790801,
        "hasDetails": true,
        "name": "Men\u2019s Hut Barbershop",
        "address": "U Str\u017ee 478/5",
        "website": "http://menshutbarbershop.cz/",
        "opening_hours": "Mo-Fr 10:00-20:00; Sa 10:00-18:00"
      },
      "geometry": {
        "type": "Point",
        "coordinates": [
          14.439591,
          50.0426661
        ]
      }
    },
    {
      "type": "Feature",
      "properties": {
        "weight": 1.0
      },
      "geometry": {
        "type": "Point",
        "coordinates": [
          14.4507718,
          50.0426748
        ]
      }
    },
    {
      "type": "Feature",
      "properties": {
        "weight": 1.0,
        "id": 3464043182,
        "hasDetails": true,
        "name": "\u200eGalanterie Praha - Andexnite.cz",
        "address": "Antala Sta\u0161ka 77, Praha"
      },
      "geometry": {
        "type": "Point",
        "coordinates": [
          14.4485354,
          50.0426899
        ]
      }
    },
    {
      "type": "Feature",
      "properties": {
        "weight": 1.0
      },
      "geometry": {
        "type": "Point",
        "coordinates": [
          14.4701129,
          50.0426935
        ]
      }
    },
    {
      "type": "Feature",
      "properties": {
        "weight": 1.0,
        "id": 4223379201,
        "hasDetails": true,
        "name": "Autoservis Kulhav\u00fd",
        "opening_hours": "Mo-Fr 08:00-17:00"
      },
      "geometry": {
        "type": "Point",
        "coordinates": [
          14.4537889,
          50.0427672
        ]
      }
    },
    {
      "type": "Feature",
      "properties": {
        "weight": 1.0,
        "id": 7289196889,
        "hasDetails": true,
        "name": "Nehtov\u00e9 studio Mirella",
        "address": "Sedl\u010dansk\u00e1 1327, Praha 4",
        "opening_hours": "Mo-Fr 09:00-19:00"
      },
      "geometry": {
        "type": "Point",
        "coordinates": [
          14.4598244,
          50.0429943
        ]
      }
    },
    {
      "type": "Feature",
      "properties": {
        "weight": 1.0
      },
      "geometry": {
        "type": "Point",
        "coordinates": [
          14.4419682,
          50.0430085
        ]
      }
    },
    {
      "type": "Feature",
      "properties": {
        "weight": 1.0,
        "id": 61594985,
        "hasDetails": true,
        "name": "ELKOV elektro",
        "address": "Severn\u00ed \u2169\u2160 2458/1, Praha",
        "website": "https://www.elkov.cz/praha-4/",
        "opening_hours": "Mo-Th 07:00-16:00; Fr 07:00-15:00"
      },
      "geometry": {
        "type": "Point",
        "coordinates": [
          14.4720004,
          50.043171
        ]
      }
    },
    {
      "type": "Feature",
      "properties": {
        "weight": 1.0
      },
      "geometry": {
        "type": "Point",
        "coordinates": [
          14.4297253,
          50.0432372
        ]
      }
    },
    {
      "type": "Feature",
      "properties": {
        "weight": 1.0,
        "id": 13428805158,
        "hasDetails": true,
        "name": "BRO's Barbershop",
        "address": "Podolsk\u00e1 109/2, Praha",
        "website": "https://www.brosbarbershop.cz/"
      },
      "geometry": {
        "type": "Point",
        "coordinates": [
          14.4120521,
          50.0433018
        ]
      }
    },
    {
      "type": "Feature",
      "properties": {
        "weight": 1.0,
        "id": 13354185344,
        "hasDetails": true,
        "name": "INTOS",
        "website": "https://intos-praha.cz/",
        "names": [
          "INTOS",
          "My beauty story"
        ]
      },
      "geometry": {
        "type": "Point",
        "coordinates": [
          14.4425868,
          50.0433709
        ]
      }
    },
    {
      "type": "Feature",
      "properties": {
        "weight": 1.0,
        "id": 3750111038,
        "hasDetails": true,
        "name": "\u0159eznictv\u00ed",
        "opening_hours": "Mo-Fr 07:00-17:00; Sa,Su off"
      },
      "geometry": {
        "type": "Point",
        "coordinates": [
          14.4502842,
          50.0434476
        ]
      }
    },
    {
      "type": "Feature",
      "properties": {
        "weight": 1.0,
        "id": 394693189,
        "hasDetails": true,
        "name": "Pek\u00e1rna Kab\u00e1t",
        "website": "https://www.pekarnakabat.cz/",
        "opening_hours": "Mo-Fr 07:00-20:00; Sa,Su 08:00-21:00"
      },
      "geometry": {
        "type": "Point",
        "coordinates": [
          14.449215,
          50.0434585
        ]
      }
    },
    {
      "type": "Feature",
      "properties": {
        "weight": 1.0
      },
      "geometry": {
        "type": "Point",
        "coordinates": [
          14.4438713,
          50.04349
        ]
      }
    },
    {
      "type": "Feature",
      "properties": {
        "weight": 1.0,
        "id": 4915421900,
        "hasDetails": true,
        "name": "Potraviny Ve\u010derka",
        "opening_hours": "Mo-Fr 06:30-22:00; Sa 08:00-22:00; Su 08:00-21:00"
      },
      "geometry": {
        "type": "Point",
        "coordinates": [
          14.4449609,
          50.0435162
        ]
      }
    },
    {
      "type": "Feature",
      "properties": {
        "weight": 1.0,
        "id": 339877429,
        "hasDetails": true,
        "name": "Billa",
        "website": "https://www.billa.cz",
        "opening_hours": "Mo-Sa 07:00-22:00; Su 08:00-21:00"
      },
      "geometry": {
        "type": "Point",
        "coordinates": [
          14.4491835,
          50.0435479
        ]
      }
    },
    {
      "type": "Feature",
      "properties": {
        "weight": 1.0,
        "id": 5364247594,
        "hasDetails": true,
        "name": "GLO",
        "opening_hours": "Mo-Fr 06:00-19:00; Sa 07:00-12:00; Su off",
        "names": [
          "GLO",
          "Basic Vlasov\u00e9 studio - Bud\u011bjovick\u00e1",
          "Pek\u00e1rna Kab\u00e1t"
        ]
      },
      "geometry": {
        "type": "Point",
        "coordinates": [
          14.4500211,
          50.0435818
        ]
      }
    },
    {
      "type": "Feature",
      "properties": {
        "weight": 1.0,
        "id": 5931097107,
        "hasDetails": true,
        "name": "N\u00e1bytek Jacues",
        "address": "Jeremenkova 106, Praha 4"
      },
      "geometry": {
        "type": "Point",
        "coordinates": [
          14.4354953,
          50.043586
        ]
      }
    },
    {
      "type": "Feature",
      "properties": {
        "weight": 1.0
      },
      "geometry": {
        "type": "Point",
        "coordinates": [
          14.4494361,
          50.0436135
        ]
      }
    },
    {
      "type": "Feature",
      "properties": {
        "weight": 1.0
      },
      "geometry": {
        "type": "Point",
        "coordinates": [
          14.4490775,
          50.0436345
        ]
      }
    },
    {
      "type": "Feature",
      "properties": {
        "weight": 1.0
      },
      "geometry": {
        "type": "Point",
        "coordinates": [
          14.4414342,
          50.0436538
        ]
      }
    },
    {
      "type": "Feature",
      "properties": {
        "weight": 1.0
      },
      "geometry": {
        "type": "Point",
        "coordinates": [
          14.4499396,
          50.0437028
        ]
      }
    },
    {
      "type": "Feature",
      "properties": {
        "weight": 1.0
      },
      "geometry": {
        "type": "Point",
        "coordinates": [
          14.4284302,
          50.0437114
        ]
      }
    },
    {
      "type": "Feature",
      "properties": {
        "weight": 1.0,
        "id": 3936809279,
        "hasDetails": true,
        "name": "dm",
        "address": "Bud\u011bjovick\u00e1 1667/64",
        "website": "https://www.dm.cz/store/p0b9/praha/budejovicka-1667-64",
        "opening_hours": "Mo-Fr 07:30-20:00; Sa, Su 09:00-19:00"
      },
      "geometry": {
        "type": "Point",
        "coordinates": [
          14.44937,
          50.0437189
        ]
      }
    },
    {
      "type": "Feature",
      "properties": {
        "weight": 1.0,
        "id": 3750116065,
        "hasDetails": true,
        "name": "Pivot\u00e9ka DBK",
        "website": "https://www.pivoteka-dbk.cz",
        "opening_hours": "Mo-Fr 09:00-20:00; Sa,Su 09:00-19:00"
      },
      "geometry": {
        "type": "Point",
        "coordinates": [
          14.4481822,
          50.0437669
        ]
      }
    },
    {
      "type": "Feature",
      "properties": {
        "weight": 1.0,
        "id": 321273937,
        "hasDetails": true,
        "wikipedia": "cs:D\u016fm bytov\u00e9 kultury"
      },
      "geometry": {
        "type": "Point",
        "coordinates": [
          14.4490951,
          50.0437782
        ]
      }
    },
    {
      "type": "Feature",
      "properties": {
        "weight": 1.0,
        "id": 5305403910,
        "hasDetails": true,
        "name": "Auto Str\u017e",
        "website": "https://strz.skoda-auto.cz/",
        "opening_hours": "Mo-Fr 08:00-18:00"
      },
      "geometry": {
        "type": "Point",
        "coordinates": [
          14.4384665,
          50.0437847
        ]
      }
    },
    {
      "type": "Feature",
      "properties": {
        "weight": 1.0
      },
      "geometry": {
        "type": "Point",
        "coordinates": [
          14.4498084,
          50.0438151
        ]
      }
    },
    {
      "type": "Feature",
      "properties": {
        "weight": 1.0
      },
      "geometry": {
        "type": "Point",
        "coordinates": [
          14.4493365,
          50.0438776
        ]
      }
    },
    {
      "type": "Feature",
      "properties": {
        "weight": 1.0
      },
      "geometry": {
        "type": "Point",
        "coordinates": [
          14.4489153,
          50.0439359
        ]
      }
    },
    {
      "type": "Feature",
      "properties": {
        "weight": 1.0
      },
      "geometry": {
        "type": "Point",
        "coordinates": [
          14.4227077,
          50.0440331
        ]
      }
    },
    {
      "type": "Feature",
      "properties": {
        "weight": 1.0,
        "id": 11032371625,
        "hasDetails": true,
        "name": "Skibi cukr\u00e1rna",
        "opening_hours": "Mo-Su 09:00-19:00",
        "names": [
          "Skibi cukr\u00e1rna",
          "Marks & Spencer"
        ]
      },
      "geometry": {
        "type": "Point",
        "coordinates": [
          14.4490593,
          50.0440558
        ]
      }
    },
    {
      "type": "Feature",
      "properties": {
        "weight": 1.0,
        "id": 11003868457,
        "hasDetails": true,
        "name": "Ovocn\u00fd sv\u011btozor",
        "website": "https://www.ovocnysvetozor.cz/pobocky/pocatecka",
        "opening_hours": "Mo-Fr 08:00-19:00; Sa 09:00-19:00; Su 10:00-19:00"
      },
      "geometry": {
        "type": "Point",
        "coordinates": [
          14.4560113,
          50.0440909
        ]
      }
    },
    {
      "type": "Feature",
      "properties": {
        "weight": 1.0
      },
      "geometry": {
        "type": "Point",
        "coordinates": [
          14.4492698,
          50.0441605
        ]
      }
    },
    {
      "type": "Feature",
      "properties": {
        "weight": 1.0,
        "id": 8147586242,
        "hasDetails": true,
        "name": "Koloni\u00e1l Sova",
        "website": "https://www.kolonialsova.cz/",
        "opening_hours": "Mo-Fr 10:00-13:30, 14:00-18:30"
      },
      "geometry": {
        "type": "Point",
        "coordinates": [
          14.4622251,
          50.0443035
        ]
      }
    },
    {
      "type": "Feature",
      "properties": {
        "weight": 1.0,
        "id": 11463814530,
        "hasDetails": true,
        "name": "Potraviny",
        "opening_hours": "Mo-Fr 08:00-19:00; Sa 09:00-19:00"
      },
      "geometry": {
        "type": "Point",
        "coordinates": [
          14.4493657,
          50.0443352
        ]
      }
    },
    {
      "type": "Feature",
      "properties": {
        "weight": 1.0,
        "id": 541478371,
        "hasDetails": true,
        "name": "Albert",
        "address": "Bratislavsk\u00e1 1517/2, Praha 10",
        "website": "https://www.albert.cz/",
        "opening_hours": "Mo-Su 07:00-21:00"
      },
      "geometry": {
        "type": "Point",
        "coordinates": [
          14.5177823,
          50.0443649
        ]
      }
    },
    {
      "type": "Feature",
      "properties": {
        "weight": 1.0,
        "id": 3749523736,
        "hasDetails": true,
        "name": "GULE cookies",
        "outdoor_seating": "no"
      },
      "geometry": {
        "type": "Point",
        "coordinates": [
          14.4477878,
          50.0443654
        ]
      }
    },
    {
      "type": "Feature",
      "properties": {
        "weight": 1.0,
        "id": 9929172826,
        "hasDetails": true,
        "name": "Teta",
        "website": "https://www.tetadrogerie.cz/prodejny/2804",
        "opening_hours": "Mo-Fr 09:00-19:00; Sa-Su 09:00-18:00",
        "names": [
          "Teta",
          "Libe\u0159sk\u00e9 lah\u016fdky",
          "Maso Jiko"
        ]
      },
      "geometry": {
        "type": "Point",
        "coordinates": [
          14.4484672,
          50.044443
        ]
      }
    },
    {
      "type": "Feature",
      "properties": {
        "weight": 1.0,
        "id": 3669604660,
        "hasDetails": true,
        "name": "Pek\u00e1rna Kab\u00e1t",
        "website": "https://www.pekarnakabat.cz/",
        "opening_hours": "Mo-Fr 06:00-20:00",
        "names": [
          "Pek\u00e1rna Kab\u00e1t",
          "Kytky od Pepy"
        ]
      },
      "geometry": {
        "type": "Point",
        "coordinates": [
          14.4483422,
          50.0445217
        ]
      }
    },
    {
      "type": "Feature",
      "properties": {
        "weight": 1.0,
        "id": 2862576408,
        "hasDetails": true,
        "name": "Krab Cycles",
        "address": "Mod\u0159ansk\u00e1 1107/51, Praha",
        "website": "https://www.krabcycles.cz/",
        "opening_hours": "Mo-Fr 10:00-19:00; Sa 09:00-15:00"
      },
      "geometry": {
        "type": "Point",
        "coordinates": [
          14.4120534,
          50.0445473
        ]
      }
    },
    {
      "type": "Feature",
      "properties": {
        "weight": 1.0,
        "id": 776032734,
        "hasDetails": true,
        "name": "Potraviny",
        "opening_hours": "Mo-Fr 07:00-21:00; Sa,Su 08:00-21:00"
      },
      "geometry": {
        "type": "Point",
        "coordinates": [
          14.4368401,
          50.0446153
        ]
      }
    },
    {
      "type": "Feature",
      "properties": {
        "weight": 1.0,
        "id": 6957182150,
        "hasDetails": true,
        "name": "Gato",
        "opening_hours": "Mo,We 07:00-17:00; Tu,Th 08:30-16:00; Fr 07:00-14:00"
      },
      "geometry": {
        "type": "Point",
        "coordinates": [
          14.4536152,
          50.0446301
        ]
      }
    },
    {
      "type": "Feature",
      "properties": {
        "weight": 1.0,
        "id": 3280838768,
        "hasDetails": true,
        "name": "Lidl",
        "address": "Olbrachtova 1946/64",
        "website": "https://www.lidl.cz/",
        "opening_hours": "Mo-Sa 07:00-22:00; Su 08:00-22:00"
      },
      "geometry": {
        "type": "Point",
        "coordinates": [
          14.4489177,
          50.0446319
        ]
      }
    },
    {
      "type": "Feature",
      "properties": {
        "weight": 1.0,
        "id": 2537573836,
        "hasDetails": true,
        "name": "Rossmann",
        "website": "https://www.rossmann.cz/",
        "opening_hours": "Mo-Fr 08:00-21:00; Sa 08:00-19:00; Su 09:00-19:00"
      },
      "geometry": {
        "type": "Point",
        "coordinates": [
          14.4486019,
          50.0446798
        ]
      }
    },
    {
      "type": "Feature",
      "properties": {
        "weight": 1.0
      },
      "geometry": {
        "type": "Point",
        "coordinates": [
          14.4483001,
          50.0447134
        ]
      }
    },
    {
      "type": "Feature",
      "properties": {
        "weight": 1.0,
        "id": 13994684263,
        "hasDetails": true,
        "opening_hours": "Mo-Fr 07:00-14:00"
      },
      "geometry": {
        "type": "Point",
        "coordinates": [
          14.4901754,
          50.0447152
        ]
      }
    },
    {
      "type": "Feature",
      "properties": {
        "weight": 1.0,
        "id": 4327347356,
        "hasDetails": true,
        "name": "URTICA",
        "address": "Praha",
        "names": [
          "URTICA",
          "abc kv\u011btiny"
        ]
      },
      "geometry": {
        "type": "Point",
        "coordinates": [
          14.4480394,
          50.0447344
        ]
      }
    },
    {
      "type": "Feature",
      "properties": {
        "weight": 1.0,
        "id": 344514860,
        "hasDetails": true,
        "name": "U Rasa",
        "opening_hours": "Mo-Fr 09:00-17:30"
      },
      "geometry": {
        "type": "Point",
        "coordinates": [
          14.4484703,
          50.0447528
        ]
      }
    },
    {
      "type": "Feature",
      "properties": {
        "weight": 1.0,
        "id": 13437984492,
        "hasDetails": true,
        "name": "POV FOOD",
        "opening_hours": "Mo-Fr 08:00-21:00; Sa-Su 09:00-20:00"
      },
      "geometry": {
        "type": "Point",
        "coordinates": [
          14.5007091,
          50.0447619
        ]
      }
    },
    {
      "type": "Feature",
      "properties": {
        "weight": 1.0,
        "id": 558590875,
        "hasDetails": true,
        "name": "Minimarket",
        "opening_hours": "Mo-Su 09:00-22:00"
      },
      "geometry": {
        "type": "Point",
        "coordinates": [
          14.5181565,
          50.0448181
        ]
      }
    },
    {
      "type": "Feature",
      "properties": {
        "weight": 1.0,
        "id": 344514862,
        "hasDetails": true,
        "name": "Trafika",
        "opening_hours": "Mo-Fr 06:00-20:30; Sa,Su 09:00-21:00"
      },
      "geometry": {
        "type": "Point",
        "coordinates": [
          14.4478911,
          50.0448225
        ]
      }
    },
    {
      "type": "Feature",
      "properties": {
        "weight": 1.0,
        "id": 941476951,
        "hasDetails": true,
        "name": "Sykora",
        "website": "http://www.vinovsudech.cz",
        "opening_hours": "Mo-Su 16:00-22:00"
      },
      "geometry": {
        "type": "Point",
        "coordinates": [
          14.5178971,
          50.0448424
        ]
      }
    },
    {
      "type": "Feature",
      "properties": {
        "weight": 1.0
      },
      "geometry": {
        "type": "Point",
        "coordinates": [
          14.4483037,
          50.0448481
        ]
      }
    },
    {
      "type": "Feature",
      "properties": {
        "weight": 1.0,
        "id": 1520266245,
        "hasDetails": true,
        "name": "Pepone",
        "website": "https://www.peponebarbershop.cz",
        "opening_hours": "Mo-Fr 10:00-18:00"
      },
      "geometry": {
        "type": "Point",
        "coordinates": [
          14.5177528,
          50.0449408
        ]
      }
    },
    {
      "type": "Feature",
      "properties": {
        "weight": 1.0
      },
      "geometry": {
        "type": "Point",
        "coordinates": [
          14.4480109,
          50.0450288
        ]
      }
    },
    {
      "type": "Feature",
      "properties": {
        "weight": 1.0
      },
      "geometry": {
        "type": "Point",
        "coordinates": [
          14.4337653,
          50.0450493
        ]
      }
    },
    {
      "type": "Feature",
      "properties": {
        "weight": 1.0,
        "id": 6539265867,
        "hasDetails": true,
        "name": "Baucar",
        "website": "https://baucar.cz/"
      },
      "geometry": {
        "type": "Point",
        "coordinates": [
          14.40779,
          50.0450563
        ]
      }
    },
    {
      "type": "Feature",
      "properties": {
        "weight": 1.0
      },
      "geometry": {
        "type": "Point",
        "coordinates": [
          14.4474905,
          50.0452237
        ]
      }
    },
    {
      "type": "Feature",
      "properties": {
        "weight": 1.0,
        "id": 592120389,
        "hasDetails": true,
        "name": "antenky.cz",
        "website": "http://www.antenky.cz/"
      },
      "geometry": {
        "type": "Point",
        "coordinates": [
          14.474013,
          50.0453661
        ]
      }
    },
    {
      "type": "Feature",
      "properties": {
        "weight": 1.0,
        "id": 10685966760,
        "hasDetails": true,
        "name": "Potraviny",
        "opening_hours": "Mo-Fr 07:00-20:30; Sa-Su,PH 08:30-20:30"
      },
      "geometry": {
        "type": "Point",
        "coordinates": [
          14.4908756,
          50.0454349
        ]
      }
    },
    {
      "type": "Feature",
      "properties": {
        "weight": 1.0
      },
      "geometry": {
        "type": "Point",
        "coordinates": [
          14.4478175,
          50.0455952
        ]
      }
    },
    {
      "type": "Feature",
      "properties": {
        "weight": 1.0,
        "id": 4874052,
        "hasDetails": true,
        "name": "Okrasn\u00e9 zahradnictv\u00ed Martin Ml\u00e1dek",
        "website": "https://www.kvetinymladek.cz/",
        "opening_hours": "Mo-Sa 08:30-17:30; Su 09:00-17:30"
      },
      "geometry": {
        "type": "Point",
        "coordinates": [
          14.4411774,
          50.0456558
        ]
      }
    },
    {
      "type": "Feature",
      "properties": {
        "weight": 1.0,
        "id": 11945935590,
        "hasDetails": true,
        "name": "Mani Pedi",
        "address": "Bud\u011bjovick\u00e1 866, Praha 4",
        "website": "https://mani-pedi.cz",
        "opening_hours": "Mo-Th 10:00-19:00; Fr 10:00-17:00"
      },
      "geometry": {
        "type": "Point",
        "coordinates": [
          14.4477083,
          50.0456655
        ]
      }
    },
    {
      "type": "Feature",
      "properties": {
        "weight": 1.0,
        "id": 1353689829,
        "hasDetails": true,
        "name": "Autoservis Auto Kohout",
        "website": "https://www.autokohout.cz/"
      },
      "geometry": {
        "type": "Point",
        "coordinates": [
          14.4064006,
          50.0457705
        ]
      }
    },
    {
      "type": "Feature",
      "properties": {
        "weight": 1.0
      },
      "geometry": {
        "type": "Point",
        "coordinates": [
          14.4419491,
          50.0457789
        ]
      }
    },
    {
      "type": "Feature",
      "properties": {
        "weight": 1.0,
        "id": 4874051,
        "hasDetails": true,
        "name": "Kv\u011btin\u00e1\u0159stv\u00ed Martin Ml\u00e1dek",
        "website": "https://www.kvetinymladek.cz/",
        "opening_hours": "Mo-Sa 08:30-18:00; Su 09:00-18:00"
      },
      "geometry": {
        "type": "Point",
        "coordinates": [
          14.4407758,
          50.0459712
        ]
      }
    },
    {
      "type": "Feature",
      "properties": {
        "weight": 1.0
      },
      "geometry": {
        "type": "Point",
        "coordinates": [
          14.4076557,
          50.0459982
        ]
      }
    },
    {
      "type": "Feature",
      "properties": {
        "weight": 1.0
      },
      "geometry": {
        "type": "Point",
        "coordinates": [
          14.4403933,
          50.0460906
        ]
      }
    },
    {
      "type": "Feature",
      "properties": {
        "weight": 1.0,
        "id": 12923541217,
        "hasDetails": true,
        "name": "In Kade\u0159nictv\u00ed",
        "address": "P\u0159\u00edm\u011btick\u00e1 1200/46, Praha 4",
        "website": "https://www.inkadernictvi.cz/",
        "opening_hours": "Mo 10:00-18:00; Tue-Thu 09:00-18:00; Fri \"dle objedn\u00e1n\u00ed\""
      },
      "geometry": {
        "type": "Point",
        "coordinates": [
          14.4487256,
          50.0461047
        ]
      }
    },
    {
      "type": "Feature",
      "properties": {
        "weight": 1.0,
        "id": 776060456,
        "hasDetails": true,
        "name": "Potraviny",
        "opening_hours": "Mo-Fr 06:30-20:30; Sa,Su 08:00-20:00"
      },
      "geometry": {
        "type": "Point",
        "coordinates": [
          14.4300113,
          50.0461639
        ]
      }
    },
    {
      "type": "Feature",
      "properties": {
        "weight": 1.0,
        "id": 776060451,
        "hasDetails": true,
        "name": "MK Optik",
        "website": "https://www.mkoptik.cz/",
        "opening_hours": "Mo-Fr 08:00-18:00; Tu 08:00-20:00"
      },
      "geometry": {
        "type": "Point",
        "coordinates": [
          14.4412801,
          50.0462219
        ]
      }
    },
    {
      "type": "Feature",
      "properties": {
        "weight": 1.0,
        "id": 13959983441,
        "hasDetails": true,
        "name": "Best Market",
        "address": "Bud\u011bjovick\u00e1, Praha",
        "opening_hours": "Mo-Su 09:00-21:00"
      },
      "geometry": {
        "type": "Point",
        "coordinates": [
          14.4476173,
          50.0462636
        ]
      }
    },
    {
      "type": "Feature",
      "properties": {
        "weight": 1.0
      },
      "geometry": {
        "type": "Point",
        "coordinates": [
          14.4158334,
          50.0462933
        ]
      }
    },
    {
      "type": "Feature",
      "properties": {
        "weight": 1.0,
        "id": 12516764960,
        "hasDetails": true,
        "name": "Skicentrum Podol\u00ed",
        "website": "https://www.snow4fun.cz/"
      },
      "geometry": {
        "type": "Point",
        "coordinates": [
          14.4156897,
          50.0463191
        ]
      }
    },
    {
      "type": "Feature",
      "properties": {
        "weight": 1.0,
        "id": 12923541219,
        "hasDetails": true,
        "name": "Nehty Bud\u011bjovick\u00e1",
        "address": "P\u0159\u00edm\u011btick\u00e1 1202/42, Praha 4",
        "website": "https://nehtybudejovicka.webnode.cz/",
        "opening_hours": "\"podle objedn\u00e1vek\""
      },
      "geometry": {
        "type": "Point",
        "coordinates": [
          14.4490746,
          50.046331
        ]
      }
    },
    {
      "type": "Feature",
      "properties": {
        "weight": 1.0,
        "id": 296737675,
        "hasDetails": true,
        "name": "TeryComputer",
        "address": "Na Zl\u00edchov\u011b 214/9, Praha 5",
        "website": "https://terycomputer.cz",
        "opening_hours": "Mo-Th 09:00-13:00, 14:00-18:00; Fr 09:00-13:00, 14:00-17:00"
      },
      "geometry": {
        "type": "Point",
        "coordinates": [
          14.4078237,
          50.0463492
        ]
      }
    },
    {
      "type": "Feature",
      "properties": {
        "weight": 1.0,
        "id": 5464630729,
        "hasDetails": true,
        "name": "Ve\u010derka",
        "opening_hours": "Mo-Su 09:00-21:00"
      },
      "geometry": {
        "type": "Point",
        "coordinates": [
          14.4609605,
          50.0463531
        ]
      }
    },
    {
      "type": "Feature",
      "properties": {
        "weight": 1.0,
        "id": 12923541218,
        "hasDetails": true,
        "name": "Salon Mili",
        "address": "P\u0159\u00edm\u011btick\u00e1 1203/40, Praha 4",
        "website": "https://salonmili.cz/",
        "opening_hours": "Mo-Fr 10:00-19:00"
      },
      "geometry": {
        "type": "Point",
        "coordinates": [
          14.4492493,
          50.0464512
        ]
      }
    },
    {
      "type": "Feature",
      "properties": {
        "weight": 1.0,
        "id": 3155563288,
        "hasDetails": true,
        "name": "Modr\u00e1 Ml\u00e9k\u00e1rna",
        "opening_hours": "Mo-Sa 06:30-20:00; Su 09:00-20:00"
      },
      "geometry": {
        "type": "Point",
        "coordinates": [
          14.414935,
          50.0464939
        ]
      }
    },
    {
      "type": "Feature",
      "properties": {
        "weight": 1.0,
        "id": 13058807077,
        "hasDetails": true,
        "name": "Teta",
        "website": "https://www.tetadrogerie.cz/prodejny/2719"
      },
      "geometry": {
        "type": "Point",
        "coordinates": [
          14.4873686,
          50.0465677
        ]
      }
    },
    {
      "type": "Feature",
      "properties": {
        "weight": 1.0,
        "id": 32953949,
        "hasDetails": true,
        "name": "Albert",
        "website": "https://www.albert.cz/",
        "opening_hours": "Mo-Su 07:00-21:00"
      },
      "geometry": {
        "type": "Point",
        "coordinates": [
          14.4471969,
          50.0466021
        ]
      }
    },
    {
      "type": "Feature",
      "properties": {
        "weight": 1.0
      },
      "geometry": {
        "type": "Point",
        "coordinates": [
          14.4750041,
          50.0466252
        ]
      }
    },
    {
      "type": "Feature",
      "properties": {
        "weight": 1.0,
        "id": 5247937323,
        "hasDetails": true,
        "name": "Grit's Tattoo Club",
        "address": "Na Zl\u00edchov\u011b 253/13",
        "website": "https://www.grits-tc.com/",
        "opening_hours": "by_appointmen"
      },
      "geometry": {
        "type": "Point",
        "coordinates": [
          14.4079778,
          50.0466369
        ]
      }
    },
    {
      "type": "Feature",
      "properties": {
        "weight": 1.0,
        "id": 296811695,
        "hasDetails": true,
        "name": "Top Potraviny",
        "address": "Na Zl\u00edchov\u011b 251/15",
        "opening_hours": "Mo-Fr 09:00-17:00"
      },
      "geometry": {
        "type": "Point",
        "coordinates": [
          14.4080027,
          50.0467644
        ]
      }
    },
    {
      "type": "Feature",
      "properties": {
        "weight": 1.0,
        "id": 1876530302,
        "hasDetails": true,
        "name": "LovelyDream",
        "website": "https://www.lovelydream.cz/",
        "opening_hours": "Mo-Su 09:00-18:00"
      },
      "geometry": {
        "type": "Point",
        "coordinates": [
          14.4158942,
          50.0467702
        ]
      }
    },
    {
      "type": "Feature",
      "properties": {
        "weight": 1.0,
        "id": 1370014421,
        "hasDetails": true,
        "name": "Albert",
        "address": "Hlavn\u00ed 2459/108, Praha 4",
        "website": "https://www.albert.cz/"
      },
      "geometry": {
        "type": "Point",
        "coordinates": [
          14.4878785,
          50.0468282
        ]
      }
    },
    {
      "type": "Feature",
      "properties": {
        "weight": 1.0,
        "id": 1719109114,
        "hasDetails": true,
        "name": "Tesco Express",
        "address": "Roztylsk\u00e9 n\u00e1m\u011bst\u00ed 2772/44, Praha 4",
        "website": "https://itesco.cz/",
        "opening_hours": "Mo-Su 07:00-21:00"
      },
      "geometry": {
        "type": "Point",
        "coordinates": [
          14.475444,
          50.0468289
        ]
      }
    },
    {
      "type": "Feature",
      "properties": {
        "weight": 1.0,
        "id": 4359263328,
        "hasDetails": true,
        "address": "Praha",
        "opening_hours": "Mo-Fr 08:15-19:00"
      },
      "geometry": {
        "type": "Point",
        "coordinates": [
          14.4146079,
          50.0468576
        ]
      }
    },
    {
      "type": "Feature",
      "properties": {
        "weight": 1.0,
        "id": 12516764957,
        "hasDetails": true,
        "name": "Rott",
        "website": "https://rottdesign.cz/"
      },
      "geometry": {
        "type": "Point",
        "coordinates": [
          14.4155383,
          50.0469101
        ]
      }
    },
    {
      "type": "Feature",
      "properties": {
        "weight": 1.0,
        "id": 10925034833,
        "hasDetails": true,
        "name": "Gruz\u00ednsk\u00e1 pek\u00e1rna BEBO",
        "cuisine": "georgian",
        "address": "Na Zl\u00edchov\u011b 17, Praha 5",
        "website": "https://www.bebobakery.cz/"
      },
      "geometry": {
        "type": "Point",
        "coordinates": [
          14.4080518,
          50.0469631
        ]
      }
    },
    {
      "type": "Feature",
      "properties": {
        "weight": 1.0,
        "id": 10946174342,
        "hasDetails": true,
        "name": "Ve\u010derka",
        "address": "Za Zelenou Li\u0161kou 545/13, Praha",
        "opening_hours": "PH,Mo-Su 06:30-22:00",
        "names": [
          "Ve\u010derka",
          "Speed Queen"
        ]
      },
      "geometry": {
        "type": "Point",
        "coordinates": [
          14.4442685,
          50.0469774
        ]
      }
    },
    {
      "type": "Feature",
      "properties": {
        "weight": 1.0
      },
      "geometry": {
        "type": "Point",
        "coordinates": [
          14.4879765,
          50.0470484
        ]
      }
    },
    {
      "type": "Feature",
      "properties": {
        "weight": 1.0
      },
      "geometry": {
        "type": "Point",
        "coordinates": [
          14.4151732,
          50.0470547
        ]
      }
    },
    {
      "type": "Feature",
      "properties": {
        "weight": 1.0,
        "id": 12726478751,
        "hasDetails": true,
        "name": "Skin Fit Studio",
        "address": "Za Zelenou Li\u0161kou 469/15, Praha",
        "website": "https://www.skinfitstudio.cz",
        "opening_hours": "\"dle objedn\u00e1vek na www.skinfitstudio.cz\""
      },
      "geometry": {
        "type": "Point",
        "coordinates": [
          14.4445529,
          50.0471871
        ]
      }
    },
    {
      "type": "Feature",
      "properties": {
        "weight": 1.0,
        "id": 13299368938,
        "hasDetails": true,
        "name": "Victoria Beauty",
        "opening_hours": "Mo-Fr 09:30-18:30; Sa \"dle objedn\u00e1n\u00ed\"",
        "names": [
          "Victoria Beauty",
          "O\u010dn\u00ed Optika Praha"
        ]
      },
      "geometry": {
        "type": "Point",
        "coordinates": [
          14.4461074,
          50.0471941
        ]
      }
    },
    {
      "type": "Feature",
      "properties": {
        "weight": 1.0
      },
      "geometry": {
        "type": "Point",
        "coordinates": [
          14.435222,
          50.0473073
        ]
      }
    },
    {
      "type": "Feature",
      "properties": {
        "weight": 1.0,
        "id": 4166981195,
        "hasDetails": true,
        "name": "Papilon",
        "website": "http://studiopapilon.cz/",
        "opening_hours": "Mo-Fr 08:00-20:00"
      },
      "geometry": {
        "type": "Point",
        "coordinates": [
          14.4458501,
          50.0473331
        ]
      }
    },
    {
      "type": "Feature",
      "properties": {
        "weight": 1.0,
        "id": 316726682,
        "hasDetails": true,
        "name": "Norma",
        "opening_hours": "Mo-Su 07:00-21:00"
      },
      "geometry": {
        "type": "Point",
        "coordinates": [
          14.518524,
          50.0474119
        ]
      }
    },
    {
      "type": "Feature",
      "properties": {
        "weight": 1.0,
        "id": 3909640046,
        "hasDetails": true,
        "name": "Cukr\u00e1rna",
        "opening_hours": "Mo-Sa 09:00-18:00; Su 10:00-18:00"
      },
      "geometry": {
        "type": "Point",
        "coordinates": [
          14.5202626,
          50.0474423
        ]
      }
    },
    {
      "type": "Feature",
      "properties": {
        "weight": 1.0,
        "id": 12831401037,
        "hasDetails": true,
        "name": "Bonveno",
        "website": "https://www.bonveno.cz/",
        "opening_hours": "Mo-Fr 06:00-23:00; Sa-Su 07:00-22:00; PH unknown"
      },
      "geometry": {
        "type": "Point",
        "coordinates": [
          14.4456654,
          50.0474511
        ]
      }
    },
    {
      "type": "Feature",
      "properties": {
        "weight": 1.0,
        "id": 9560738458,
        "hasDetails": true,
        "name": "Studio creativ Harmonie",
        "address": "Jeremenkova 1",
        "website": "https://www.studiocreativharmonie.cz",
        "opening_hours": "Mo-Fr 09:00-19:00, Sa-Su by appointment"
      },
      "geometry": {
        "type": "Point",
        "coordinates": [
          14.4157216,
          50.0474547
        ]
      }
    },
    {
      "type": "Feature",
      "properties": {
        "weight": 1.0
      },
      "geometry": {
        "type": "Point",
        "coordinates": [
          14.5205025,
          50.0474691
        ]
      }
    },
    {
      "type": "Feature",
      "properties": {
        "weight": 1.0
      },
      "geometry": {
        "type": "Point",
        "coordinates": [
          14.5184039,
          50.0475056
        ]
      }
    },
    {
      "type": "Feature",
      "properties": {
        "weight": 1.0,
        "id": 11409346663,
        "hasDetails": true,
        "name": "Salon kr\u00e1sy Feliz",
        "address": "Bud\u011bjovick\u00e1 368/28, Praha",
        "website": "https://www.salonfeliz.cz/"
      },
      "geometry": {
        "type": "Point",
        "coordinates": [
          14.4445505,
          50.0475988
        ]
      }
    },
    {
      "type": "Feature",
      "properties": {
        "weight": 1.0,
        "id": 635621392,
        "hasDetails": true,
        "name": "EVROM",
        "opening_hours": "Mo,Tu,Th,Fr 09:00-18:00; We 10:00-19:00"
      },
      "geometry": {
        "type": "Point",
        "coordinates": [
          14.4604734,
          50.0476512
        ]
      }
    },
    {
      "type": "Feature",
      "properties": {
        "weight": 1.0
      },
      "geometry": {
        "type": "Point",
        "coordinates": [
          14.4877951,
          50.047671
        ]
      }
    },
    {
      "type": "Feature",
      "properties": {
        "weight": 1.0,
        "id": 5116818699,
        "hasDetails": true,
        "name": "Cukr\u00e1rna H\u00e1jek",
        "address": "Vysko\u010dilova 2a, Praha 4",
        "website": "https://www.cukrarna-hajek-hajkova.cz/",
        "opening_hours": "Mo-Fr 07:00-19:00; Sa-Su 10:00-19:00"
      },
      "geometry": {
        "type": "Point",
        "coordinates": [
          14.4540317,
          50.0476791
        ]
      }
    },
    {
      "type": "Feature",
      "properties": {
        "weight": 1.0,
        "id": 12923612598,
        "hasDetails": true,
        "name": "Pedik\u00fara",
        "opening_hours": "Mo,We,Fr 09:00-13:00; \"d\u00e1le dle dohody\""
      },
      "geometry": {
        "type": "Point",
        "coordinates": [
          14.4461375,
          50.0476926
        ]
      }
    },
    {
      "type": "Feature",
      "properties": {
        "weight": 1.0,
        "id": 1404829317,
        "hasDetails": true,
        "name": "vidoza.cz",
        "address": "Podolsk\u00e1 538/42, Praha",
        "website": "https://vidoza.cz/",
        "opening_hours": "Mo-Th 9:00-12:00, 12:45-16:30, Fr 9:00-12:00, 12:45-16:00",
        "names": [
          "vidoza.cz",
          "Autom\u011bchy"
        ]
      },
      "geometry": {
        "type": "Point",
        "coordinates": [
          14.4157468,
          50.0477382
        ]
      }
    },
    {
      "type": "Feature",
      "properties": {
        "weight": 1.0,
        "id": 12923541216,
        "hasDetails": true,
        "name": "Skin&Brows Salon",
        "address": "Vok\u00e1\u010dova 1182/4, Praha 4",
        "opening_hours": "Thu-Sa \"dle objedn\u00e1n\u00ed\"",
        "names": [
          "Skin&Brows Salon",
          "Handy Studio"
        ]
      },
      "geometry": {
        "type": "Point",
        "coordinates": [
          14.4462898,
          50.0477991
        ]
      }
    },
    {
      "type": "Feature",
      "properties": {
        "weight": 1.0,
        "id": 8509749583,
        "hasDetails": true,
        "name": "Geoke\u0161",
        "address": "Podolsk\u00e1 42, Praha",
        "website": "https://www.geokes.cz/",
        "opening_hours": "Mo,We 16:30-18:30; Tu 08:30-10:30"
      },
      "geometry": {
        "type": "Point",
        "coordinates": [
          14.4157699,
          50.0478633
        ]
      }
    },
    {
      "type": "Feature",
      "properties": {
        "weight": 1.0,
        "id": 2199778635,
        "hasDetails": true,
        "name": "\u0158eznictv\u00ed K\u0159e\u010dek",
        "opening_hours": "Mo-Fr 08:00-18:00"
      },
      "geometry": {
        "type": "Point",
        "coordinates": [
          14.4350921,
          50.0480294
        ]
      }
    },
    {
      "type": "Feature",
      "properties": {
        "weight": 1.0,
        "id": 12923541214,
        "hasDetails": true,
        "name": "Nehtov\u00e9 studio",
        "address": "Vok\u00e1\u010dova 1180/8, Praha 4",
        "website": "https://beautynails.wbs.cz/",
        "opening_hours": "Mo-Fr 08:00-20:00"
      },
      "geometry": {
        "type": "Point",
        "coordinates": [
          14.4466498,
          50.0480346
        ]
      }
    },
    {
      "type": "Feature",
      "properties": {
        "weight": 1.0,
        "id": 12499088950,
        "hasDetails": true,
        "name": "Zrno zrnko",
        "website": "https://www.zrnozrnko.cz/"
      },
      "geometry": {
        "type": "Point",
        "coordinates": [
          14.4538042,
          50.0480505
        ]
      }
    },
    {
      "type": "Feature",
      "properties": {
        "weight": 1.0,
        "id": 1703308201,
        "hasDetails": true,
        "name": "PENNY",
        "address": "Choceradsk\u00e1 3214, Praha 4",
        "opening_hours": "Mo-Su 07:00-21:00"
      },
      "geometry": {
        "type": "Point",
        "coordinates": [
          14.4932199,
          50.0481051
        ]
      }
    },
    {
      "type": "Feature",
      "properties": {
        "weight": 1.0
      },
      "geometry": {
        "type": "Point",
        "coordinates": [
          14.4542794,
          50.0481135
        ]
      }
    },
    {
      "type": "Feature",
      "properties": {
        "weight": 1.0,
        "id": 3503745819,
        "hasDetails": true,
        "name": "Chovatelsk\u00e9 pot\u0159eby",
        "opening_hours": "Mo-Fr 10:30-18:30; Sa 09:00-13:00"
      },
      "geometry": {
        "type": "Point",
        "coordinates": [
          14.4354423,
          50.0481332
        ]
      }
    },
    {
      "type": "Feature",
      "properties": {
        "weight": 1.0,
        "id": 12514137163,
        "hasDetails": true,
        "name": "BrainMarket",
        "website": "https://www.brainmarket.cz/"
      },
      "geometry": {
        "type": "Point",
        "coordinates": [
          14.4546633,
          50.0481514
        ]
      }
    },
    {
      "type": "Feature",
      "properties": {
        "weight": 1.0,
        "id": 4873373,
        "hasDetails": true,
        "name": "Norma",
        "website": "https://www.norma-online.de/cz/",
        "opening_hours": "Mo-Su 07:00-20:00"
      },
      "geometry": {
        "type": "Point",
        "coordinates": [
          14.4357767,
          50.0481727
        ]
      }
    },
    {
      "type": "Feature",
      "properties": {
        "weight": 1.0,
        "id": 13426507365,
        "hasDetails": true,
        "name": "Vanela Hair",
        "opening_hours": "by appointment"
      },
      "geometry": {
        "type": "Point",
        "coordinates": [
          14.4468332,
          50.0482734
        ]
      }
    },
    {
      "type": "Feature",
      "properties": {
        "weight": 1.0
      },
      "geometry": {
        "type": "Point",
        "coordinates": [
          14.4832162,
          50.048406
        ]
      }
    },
    {
      "type": "Feature",
      "properties": {
        "weight": 1.0,
        "id": 13994684252,
        "hasDetails": true,
        "name": "Krmivo pro Psy",
        "opening_hours": "Mo-Fr 11:00-18:00; Sa-Su off"
      },
      "geometry": {
        "type": "Point",
        "coordinates": [
          14.4843658,
          50.048535
        ]
      }
    },
    {
      "type": "Feature",
      "properties": {
        "weight": 1.0
      },
      "geometry": {
        "type": "Point",
        "coordinates": [
          14.4581613,
          50.048543
        ]
      }
    },
    {
      "type": "Feature",
      "properties": {
        "weight": 1.0,
        "id": 11409346662,
        "hasDetails": true,
        "name": "Potraviny",
        "opening_hours": "PH,Mo-Su 07:00-21:00"
      },
      "geometry": {
        "type": "Point",
        "coordinates": [
          14.4430083,
          50.0485466
        ]
      }
    },
    {
      "type": "Feature",
      "properties": {
        "weight": 1.0,
        "id": 4822474553,
        "hasDetails": true,
        "name": "Peka\u0159stv\u00ed Bud\u011bjovick\u00e1",
        "opening_hours": "Mo-Fr 06:30-18:00"
      },
      "geometry": {
        "type": "Point",
        "coordinates": [
          14.4428937,
          50.0486095
        ]
      }
    },
    {
      "type": "Feature",
      "properties": {
        "weight": 1.0,
        "id": 13994684254,
        "hasDetails": true,
        "name": "Spy obchod.cz",
        "website": "https://spyobchod.cz"
      },
      "geometry": {
        "type": "Point",
        "coordinates": [
          14.4846701,
          50.0486192
        ]
      }
    },
    {
      "type": "Feature",
      "properties": {
        "weight": 1.0,
        "id": 12944929229,
        "hasDetails": true,
        "name": "Bandi",
        "address": "Bud\u011bjovick\u00e1 3a, Praha 4",
        "website": "https://www.bandi.cz/prodejny/prodejna-panske-obleky-bandi-praha-4-michle/",
        "opening_hours": "Mo-Su 10:00-20:30"
      },
      "geometry": {
        "type": "Point",
        "coordinates": [
          14.443523,
          50.0487486
        ]
      }
    },
    {
      "type": "Feature",
      "properties": {
        "weight": 1.0,
        "id": 9812184750,
        "hasDetails": true,
        "name": "Auto Hl\u00e1sek",
        "address": "Podolsk\u00e1 401/52",
        "website": "https://www.autohlasek.cz/",
        "opening_hours": "Mo-Fr 08:00-17:00"
      },
      "geometry": {
        "type": "Point",
        "coordinates": [
          14.4159823,
          50.0487778
        ]
      }
    },
    {
      "type": "Feature",
      "properties": {
        "weight": 1.0,
        "id": 2886146306,
        "hasDetails": true,
        "name": "Albert",
        "address": "\u017deletavsk\u00e1 1525/1, Praha 4",
        "website": "https://www.albert.cz/"
      },
      "geometry": {
        "type": "Point",
        "coordinates": [
          14.4531795,
          50.0488931
        ]
      }
    },
    {
      "type": "Feature",
      "properties": {
        "weight": 1.0,
        "id": 59584975,
        "hasDetails": true,
        "name": "Stop Cafe",
        "amenity": "cafe",
        "cuisine": "coffee_shop;hot_dog",
        "opening_hours": "Mo-Su 05:00-24:00"
      },
      "geometry": {
        "type": "Point",
        "coordinates": [
          14.4098795,
          50.0491146
        ]
      }
    },
    {
      "type": "Feature",
      "properties": {
        "weight": 1.0
      },
      "geometry": {
        "type": "Point",
        "coordinates": [
          14.4417394,
          50.0491452
        ]
      }
    },
    {
      "type": "Feature",
      "properties": {
        "weight": 1.0
      },
      "geometry": {
        "type": "Point",
        "coordinates": [
          14.4591318,
          50.0496133
        ]
      }
    },
    {
      "type": "Feature",
      "properties": {
        "weight": 1.0
      },
      "geometry": {
        "type": "Point",
        "coordinates": [
          14.4825651,
          50.0497776
        ]
      }
    },
    {
      "type": "Feature",
      "properties": {
        "weight": 1.0,
        "id": 379880590,
        "hasDetails": true,
        "name": "Bauhaus",
        "address": "Bud\u011bjovick\u00e1 409/1a, Praha 4",
        "website": "https://www.bauhaus.cz/",
        "opening_hours": "Mo-Fr 07:00-21:00; Sa 08:00-21:00; Su 08:00-20:00"
      },
      "geometry": {
        "type": "Point",
        "coordinates": [
          14.4431704,
          50.0501471
        ]
      }
    },
    {
      "type": "Feature",
      "properties": {
        "weight": 1.0,
        "id": 11945629694,
        "hasDetails": true,
        "name": "Penny",
        "address": "Bud\u011bjovick\u00e1 409/1a, Praha 4",
        "opening_hours": "Mo-Su 07:00-21:00",
        "names": [
          "Penny",
          "TRAFICON"
        ]
      },
      "geometry": {
        "type": "Point",
        "coordinates": [
          14.4431879,
          50.0503884
        ]
      }
    },
    {
      "type": "Feature",
      "properties": {
        "weight": 1.0,
        "id": 3372334868,
        "hasDetails": true,
        "name": "Knihy Dobrovsk\u00fd",
        "opening_hours": "Mo-Su 09:00-21:00"
      },
      "geometry": {
        "type": "Point",
        "coordinates": [
          14.4373333,
          50.0505506
        ]
      }
    },
    {
      "type": "Feature",
      "properties": {
        "weight": 1.0,
        "id": 2459099637,
        "hasDetails": true,
        "name": "Oresi",
        "address": "Na Pankr\u00e1ci 1724/129, Praha",
        "opening_hours": "Mo-Su 09:00-20:00"
      },
      "geometry": {
        "type": "Point",
        "coordinates": [
          14.4410275,
          50.0505713
        ]
      }
    },
    {
      "type": "Feature",
      "properties": {
        "weight": 1.0,
        "id": 1949439301,
        "hasDetails": true,
        "name": "Rock Point",
        "opening_hours": "Mo-Su 09:00-21:00"
      },
      "geometry": {
        "type": "Point",
        "coordinates": [
          14.437874,
          50.0506116
        ]
      }
    },
    {
      "type": "Feature",
      "properties": {
        "weight": 1.0,
        "id": 3503688735,
        "hasDetails": true,
        "website": "https://cz.intimissimi.com/",
        "opening_hours": "Mo-Su 09:00-21:00"
      },
      "geometry": {
        "type": "Point",
        "coordinates": [
          14.4385632,
          50.0506356
        ]
      }
    },
    {
      "type": "Feature",
      "properties": {
        "weight": 1.0,
        "id": 2525562756,
        "hasDetails": true,
        "name": "Tchibo",
        "opening_hours": "Mo-Sa 09:00-21:00"
      },
      "geometry": {
        "type": "Point",
        "coordinates": [
          14.4380924,
          50.0506368
        ]
      }
    },
    {
      "type": "Feature",
      "properties": {
        "weight": 1.0
      },
      "geometry": {
        "type": "Point",
        "coordinates": [
          14.4388818,
          50.0507159
        ]
      }
    },
    {
      "type": "Feature",
      "properties": {
        "weight": 1.0,
        "id": 296707460,
        "hasDetails": true,
        "name": "Hana Trading",
        "address": "Michelsk\u00e1 715/55",
        "website": "https://susi.cz/",
        "opening_hours": "Mo-Fr 08:00-18:00"
      },
      "geometry": {
        "type": "Point",
        "coordinates": [
          14.4587229,
          50.0507542
        ]
      }
    },
    {
      "type": "Feature",
      "properties": {
        "weight": 1.0
      },
      "geometry": {
        "type": "Point",
        "coordinates": [
          14.4391531,
          50.0507595
        ]
      }
    },
    {
      "type": "Feature",
      "properties": {
        "weight": 1.0,
        "id": 1990367866,
        "hasDetails": true,
        "name": "Albert",
        "address": "Na Pankr\u00e1ci 86, Praha 4",
        "website": "https://www.albert.cz/",
        "opening_hours": "Mo-Su 07:00-22:00"
      },
      "geometry": {
        "type": "Point",
        "coordinates": [
          14.43742,
          50.0507777
        ]
      }
    },
    {
      "type": "Feature",
      "properties": {
        "weight": 1.0,
        "id": 9545347307,
        "hasDetails": true,
        "name": "Skiservis Podol\u00ed",
        "website": "https://www.lyzarskyservis.cz",
        "opening_hours": "Mo-Fr 10:00-18:00"
      },
      "geometry": {
        "type": "Point",
        "coordinates": [
          14.4167183,
          50.050843
        ]
      }
    },
    {
      "type": "Feature",
      "properties": {
        "weight": 1.0
      },
      "geometry": {
        "type": "Point",
        "coordinates": [
          14.5237633,
          50.050866
        ]
      }
    },
    {
      "type": "Feature",
      "properties": {
        "weight": 1.0,
        "id": 318479303,
        "hasDetails": true,
        "name": "Ark\u00e1dy Pankr\u00e1c",
        "website": "https://www.arkady-pankrac.cz/",
        "opening_hours": "Mo-Su 09:00-21:00",
        "wikidata": "Q33206117",
        "wikipedia": "cs:Ark\u00e1dy Pankr\u00e1c"
      },
      "geometry": {
        "type": "Point",
        "coordinates": [
          14.4379648,
          50.0508919
        ]
      }
    },
    {
      "type": "Feature",
      "properties": {
        "weight": 1.0
      },
      "geometry": {
        "type": "Point",
        "coordinates": [
          14.4369324,
          50.0509664
        ]
      }
    },
    {
      "type": "Feature",
      "properties": {
        "weight": 1.0,
        "id": 3898015804,
        "hasDetails": true,
        "name": "Sportisimo",
        "website": "https://www.sportisimo.cz/",
        "opening_hours": "Mo-Su 09:00-21:00"
      },
      "geometry": {
        "type": "Point",
        "coordinates": [
          14.439008,
          50.0509683
        ]
      }
    },
    {
      "type": "Feature",
      "properties": {
        "weight": 1.0,
        "id": 6352548916,
        "hasDetails": true,
        "name": "\u0161rouby.com",
        "address": "Pra\u017esk\u00e1 10/7",
        "website": "http://www.srouby.com/",
        "opening_hours": "Mo-Th 08:00-16:30;Fr 08:00-15:00"
      },
      "geometry": {
        "type": "Point",
        "coordinates": [
          14.5236824,
          50.0510092
        ]
      }
    },
    {
      "type": "Feature",
      "properties": {
        "weight": 1.0,
        "id": 12471926317,
        "hasDetails": true,
        "name": "Nesia",
        "website": "https://nesia.sk/cz/"
      },
      "geometry": {
        "type": "Point",
        "coordinates": [
          14.4110147,
          50.0510224
        ]
      }
    },
    {
      "type": "Feature",
      "properties": {
        "weight": 1.0,
        "id": 3503688736,
        "hasDetails": true,
        "website": "http://www.triumph.com/cz/en/index.html",
        "opening_hours": "Mo-Su 09:00-21:00"
      },
      "geometry": {
        "type": "Point",
        "coordinates": [
          14.4387482,
          50.0510239
        ]
      }
    },
    {
      "type": "Feature",
      "properties": {
        "weight": 1.0,
        "id": 4815191648,
        "hasDetails": true,
        "name": "Prodejna \u010cT",
        "website": "http://www.ceskatelevize.cz/eshop/prodejny.html",
        "opening_hours": "Mo-Fr 08:30-17:00"
      },
      "geometry": {
        "type": "Point",
        "coordinates": [
          14.4281923,
          50.0510265
        ]
      }
    },
    {
      "type": "Feature",
      "properties": {
        "weight": 1.0,
        "id": 6352548917,
        "hasDetails": true,
        "name": "Cukr\u00e1\u0159stv\u00ed Hostiva\u0159",
        "opening_hours": "Tu-Sa 11:00-17:00"
      },
      "geometry": {
        "type": "Point",
        "coordinates": [
          14.5232191,
          50.0511784
        ]
      }
    },
    {
      "type": "Feature",
      "properties": {
        "weight": 1.0,
        "id": 12635028350,
        "hasDetails": true,
        "name": "Decathlon",
        "address": "Na Pankr\u00e1ci 1727/86, Praha 4",
        "opening_hours": "Mo-Su 09:00-21:00"
      },
      "geometry": {
        "type": "Point",
        "coordinates": [
          14.4377433,
          50.0512167
        ]
      }
    },
    {
      "type": "Feature",
      "properties": {
        "weight": 1.0
      },
      "geometry": {
        "type": "Point",
        "coordinates": [
          14.4349147,
          50.0512513
        ]
      }
    },
    {
      "type": "Feature",
      "properties": {
        "weight": 1.0
      },
      "geometry": {
        "type": "Point",
        "coordinates": [
          14.4282685,
          50.0513075
        ]
      }
    },
    {
      "type": "Feature",
      "properties": {
        "weight": 1.0,
        "id": 9863698420,
        "hasDetails": true,
        "name": "Kade\u0159nictv\u00ed Milu\u0161e Hrub\u00e1",
        "address": "Podolsk\u00e1 47",
        "website": "http://www.facebook.com/kadernictvipodoli",
        "opening_hours": "Mo-Fr 08:00-20:45; Sa-Su 10:00-18:00",
        "names": [
          "Kade\u0159nictv\u00ed Milu\u0161e Hrub\u00e1",
          "Mark\u00fdz"
        ]
      },
      "geometry": {
        "type": "Point",
        "coordinates": [
          14.4170412,
          50.0513473
        ]
      }
    },
    {
      "type": "Feature",
      "properties": {
        "weight": 1.0
      },
      "geometry": {
        "type": "Point",
        "coordinates": [
          14.4536909,
          50.0513505
        ]
      }
    },
    {
      "type": "Feature",
      "properties": {
        "weight": 1.0,
        "id": 7054342468,
        "hasDetails": true,
        "name": "Vodafone",
        "address": "Na Pankr\u00e1ci 86",
        "website": "https://vodafone.cz",
        "opening_hours": "Mo-Su 09:00-21:00"
      },
      "geometry": {
        "type": "Point",
        "coordinates": [
          14.4381834,
          50.0514533
        ]
      }
    },
    {
      "type": "Feature",
      "properties": {
        "weight": 1.0,
        "id": 100163795,
        "hasDetails": true,
        "name": "JMP studio zdrav\u00e9ho span\u00ed",
        "address": "Ohradn\u00ed 1364/14, Praha 4",
        "website": "https://loznice.cz/",
        "opening_hours": "Mo-Fr 09:00-19:00Sa 09:00-13:00 \" V\u00fddejn\u00ed doba skladu po-p\u00e1: 9:00-18:30, so: 9:00-12:30\""
      },
      "geometry": {
        "type": "Point",
        "coordinates": [
          14.4538037,
          50.0515739
        ]
      }
    },
    {
      "type": "Feature",
      "properties": {
        "weight": 1.0,
        "id": 776032683,
        "hasDetails": true,
        "name": "Market Sun May",
        "opening_hours": "Mo-Su 07:00-20:00"
      },
      "geometry": {
        "type": "Point",
        "coordinates": [
          14.4269524,
          50.0516581
        ]
      }
    },
    {
      "type": "Feature",
      "properties": {
        "weight": 1.0,
        "id": 13204333368,
        "hasDetails": true,
        "name": "Sm\u00ed\u0161en\u00e9 zbo\u017e\u00ed",
        "opening_hours": "Mo-Fr 05:45-10:00,14:00-18:00; Sa 06:30-10:00"
      },
      "geometry": {
        "type": "Point",
        "coordinates": [
          14.4519566,
          50.051727
        ]
      }
    },
    {
      "type": "Feature",
      "properties": {
        "weight": 1.0
      },
      "geometry": {
        "type": "Point",
        "coordinates": [
          14.4548991,
          50.0517547
        ]
      }
    },
    {
      "type": "Feature",
      "properties": {
        "weight": 1.0,
        "id": 12037563792,
        "hasDetails": true,
        "name": "Sklen\u00e1\u0159stv\u00ed KK",
        "address": "Hornom\u011bcholupsk\u00e1 195/18, Praha 10",
        "website": "http://www.sklenarstvikk.cz/",
        "opening_hours": "Mo-Th 09:00-17:00; Fr 09:00-13:00; Sa,Su off"
      },
      "geometry": {
        "type": "Point",
        "coordinates": [
          14.5323255,
          50.0519396
        ]
      }
    },
    {
      "type": "Feature",
      "properties": {
        "weight": 1.0,
        "id": 11602487911,
        "hasDetails": true,
        "name": "OZ Br\u00e1zda s.r.o.",
        "address": "Pr\u00e1\u010dsk\u00e1 1885/12",
        "website": "https://ozbrazda.cz",
        "opening_hours": "24/7"
      },
      "geometry": {
        "type": "Point",
        "coordinates": [
          14.5065751,
          50.0520563
        ]
      }
    },
    {
      "type": "Feature",
      "properties": {
        "weight": 1.0,
        "id": 4257998289,
        "hasDetails": true,
        "name": "ASSIST POINT",
        "address": "Hv\u011bzdova 1566/21",
        "website": "www.assistpoint.cz",
        "opening_hours": "Mo-Fr 09:00-17:00"
      },
      "geometry": {
        "type": "Point",
        "coordinates": [
          14.4375517,
          50.0521094
        ]
      }
    },
    {
      "type": "Feature",
      "properties": {
        "weight": 1.0,
        "id": 1316628928,
        "hasDetails": true,
        "name": "\u017dabka",
        "opening_hours": "Mo-Su 06:00-23:00; PH off"
      },
      "geometry": {
        "type": "Point",
        "coordinates": [
          14.454536,
          50.0521311
        ]
      }
    },
    {
      "type": "Feature",
      "properties": {
        "weight": 1.0,
        "id": 1645457503,
        "hasDetails": true,
        "name": "Subaru - ALM",
        "website": "https://subaru-alm.cz/",
        "opening_hours": "Mo-Fr 08:00-16:30"
      },
      "geometry": {
        "type": "Point",
        "coordinates": [
          14.5298386,
          50.0521922
        ]
      }
    },
    {
      "type": "Feature",
      "properties": {
        "weight": 1.0
      },
      "geometry": {
        "type": "Point",
        "coordinates": [
          14.4308864,
          50.052207
        ]
      }
    },
    {
      "type": "Feature",
      "properties": {
        "weight": 1.0,
        "id": 13426510369,
        "hasDetails": true,
        "name": "Salon Milady",
        "website": "https://www.salon-milady.cz",
        "opening_hours": "by appointment",
        "names": [
          "Salon Milady",
          "Hodin\u00e1\u0159stv\u00ed P\u0159\u00edborsk\u00fd"
        ]
      },
      "geometry": {
        "type": "Point",
        "coordinates": [
          14.4380021,
          50.0523227
        ]
      }
    },
    {
      "type": "Feature",
      "properties": {
        "weight": 1.0,
        "id": 4021406200,
        "hasDetails": true,
        "name": "PNEU \u2013 \u0160afr\u00e1nek",
        "website": "https://www.pneusafranek.cz/",
        "opening_hours": "Mo-Fr 08:00-17:00"
      },
      "geometry": {
        "type": "Point",
        "coordinates": [
          14.5222225,
          50.0523313
        ]
      }
    },
    {
      "type": "Feature",
      "properties": {
        "weight": 1.0
      },
      "geometry": {
        "type": "Point",
        "coordinates": [
          14.4760157,
          50.0524686
        ]
      }
    },
    {
      "type": "Feature",
      "properties": {
        "weight": 1.0,
        "id": 3682388239,
        "hasDetails": true,
        "name": "Spokojen\u00fd pes",
        "address": "Hv\u011bzdova 33, Praha",
        "website": "https://www.spokojenypes.cz/",
        "opening_hours": "Mo-Fr 09:30-18:30; Sa 09:30-13:30"
      },
      "geometry": {
        "type": "Point",
        "coordinates": [
          14.4399849,
          50.0524877
        ]
      }
    },
    {
      "type": "Feature",
      "properties": {
        "weight": 1.0,
        "id": 776032744,
        "hasDetails": true,
        "name": "O\u010dn\u00ed optika Pankr\u00e1c",
        "address": "Hv\u011bzdova 1601, Praha",
        "website": "https://optika-pankrac.cz"
      },
      "geometry": {
        "type": "Point",
        "coordinates": [
          14.4393264,
          50.0526236
        ]
      }
    },
    {
      "type": "Feature",
      "properties": {
        "weight": 1.0,
        "id": 11383690634,
        "hasDetails": true,
        "name": "Alza",
        "address": "Na Pankr\u00e1ci 1600/82, Praha 4",
        "website": "https://www.alza.cz/",
        "opening_hours": "Mo-Sa 08:00-20:00; Su 09:00-20:00"
      },
      "geometry": {
        "type": "Point",
        "coordinates": [
          14.4378295,
          50.0528478
        ]
      }
    },
    {
      "type": "Feature",
      "properties": {
        "weight": 1.0
      },
      "geometry": {
        "type": "Point",
        "coordinates": [
          14.5083641,
          50.0528523
        ]
      }
    },
    {
      "type": "Feature",
      "properties": {
        "weight": 1.0,
        "id": 13556413067,
        "hasDetails": true,
        "name": "Oknotherm",
        "website": "https://www.oknotherm.cz/kontakty/praha-10",
        "opening_hours": "Mo-Th 07:30-11:45,12:15-16:30; Fr 08:00-11:45,12:15-14:30; Sa,Su,PH off"
      },
      "geometry": {
        "type": "Point",
        "coordinates": [
          14.5032451,
          50.0529208
        ]
      }
    },
    {
      "type": "Feature",
      "properties": {
        "weight": 1.0,
        "id": 4905286164,
        "hasDetails": true,
        "name": "Bajkazyl",
        "opening_hours": "Tu-Th 14:00-20:00"
      },
      "geometry": {
        "type": "Point",
        "coordinates": [
          14.4083566,
          50.052939
        ]
      }
    },
    {
      "type": "Feature",
      "properties": {
        "weight": 1.0,
        "id": 3303885876,
        "hasDetails": true,
        "name": "Marshall",
        "opening_hours": "Mo-Fr 12:00-18:00; Sa,Su off"
      },
      "geometry": {
        "type": "Point",
        "coordinates": [
          14.4182228,
          50.0529582
        ]
      }
    },
    {
      "type": "Feature",
      "properties": {
        "weight": 1.0,
        "id": 10775929007,
        "hasDetails": true,
        "name": "iColor",
        "opening_hours": "Mo-Fr 07:00-16:00"
      },
      "geometry": {
        "type": "Point",
        "coordinates": [
          14.3736261,
          50.0530026
        ]
      }
    },
    {
      "type": "Feature",
      "properties": {
        "weight": 1.0,
        "id": 10775918975,
        "hasDetails": true,
        "name": "Autoservis APS_BY",
        "opening_hours": "Mo-Fr 09:00-18:00"
      },
      "geometry": {
        "type": "Point",
        "coordinates": [
          14.3731304,
          50.0531279
        ]
      }
    },
    {
      "type": "Feature",
      "properties": {
        "weight": 1.0,
        "id": 5863161613,
        "hasDetails": true,
        "name": "dm",
        "address": "\u0160vehlova 1391/32",
        "website": "https://www.dm.cz",
        "opening_hours": "Mo-Fr 09:00-21:00; Sa,Su 10:00-21:00",
        "names": [
          "dm",
          "Cavum Carolinum",
          "Makostroje"
        ]
      },
      "geometry": {
        "type": "Point",
        "coordinates": [
          14.5180672,
          50.0531501
        ]
      }
    },
    {
      "type": "Feature",
      "properties": {
        "weight": 1.0,
        "id": 32084197,
        "hasDetails": true,
        "name": "VIVO!",
        "website": "https://vivo-shopping.com/cs/hostivar",
        "opening_hours": "Mo-Fr 06:30-22:00; Sa,Su 07:00-22:00",
        "wikidata": "Q28122228",
        "names": [
          "VIVO!",
          "Albert"
        ]
      },
      "geometry": {
        "type": "Point",
        "coordinates": [
          14.5174757,
          50.0531516
        ]
      }
    },
    {
      "type": "Feature",
      "properties": {
        "weight": 1.0
      },
      "geometry": {
        "type": "Point",
        "coordinates": [
          14.3727704,
          50.0532083
        ]
      }
    },
    {
      "type": "Feature",
      "properties": {
        "weight": 1.0
      },
      "geometry": {
        "type": "Point",
        "coordinates": [
          14.3724571,
          50.0532575
        ]
      }
    },
    {
      "type": "Feature",
      "properties": {
        "weight": 1.0,
        "id": 5863161610,
        "hasDetails": true,
        "name": "Filium\u00ed",
        "website": "https://www.fili.cz/?page=hostivar",
        "names": [
          "Filium\u00ed",
          "McPen"
        ]
      },
      "geometry": {
        "type": "Point",
        "coordinates": [
          14.5179091,
          50.053265
        ]
      }
    },
    {
      "type": "Feature",
      "properties": {
        "weight": 1.0,
        "id": 5861364725,
        "hasDetails": true,
        "name": "Takko Fashion",
        "website": "https://www.takko.com/",
        "opening_hours": "Mo-Fr 09:00-21:00; Sa,Su 10:00-21:00",
        "names": [
          "Takko Fashion",
          "ETA"
        ]
      },
      "geometry": {
        "type": "Point",
        "coordinates": [
          14.5171027,
          50.0532957
        ]
      }
    },
    {
      "type": "Feature",
      "properties": {
        "weight": 1.0,
        "id": 4822413601,
        "hasDetails": true,
        "name": "Podlahy Ipsal",
        "opening_hours": "Mo-Fr 09:00-18:00"
      },
      "geometry": {
        "type": "Point",
        "coordinates": [
          14.4374556,
          50.0532967
        ]
      }
    },
    {
      "type": "Feature",
      "properties": {
        "weight": 1.0,
        "id": 9542943945,
        "hasDetails": true,
        "name": "Super zoo",
        "website": "https://www.superzoo.cz/praha-svehlova/",
        "opening_hours": "Mo-Fr 09:00-21:00; Sa,Su 10:00-21:00"
      },
      "geometry": {
        "type": "Point",
        "coordinates": [
          14.5168865,
          50.0533388
        ]
      }
    },
    {
      "type": "Feature",
      "properties": {
        "weight": 1.0,
        "id": 4553035693,
        "hasDetails": true,
        "name": "Datart",
        "opening_hours": "Mo-Fr 09:00-21:00; Sa-Su 10:00-21:00",
        "names": [
          "Datart",
          "Odon",
          "NEA Beaut\u00e9"
        ]
      },
      "geometry": {
        "type": "Point",
        "coordinates": [
          14.5172761,
          50.0533478
        ]
      }
    },
    {
      "type": "Feature",
      "properties": {
        "weight": 1.0,
        "id": 6475068407,
        "hasDetails": true,
        "name": "Knihy Dobrovsk\u00fd",
        "website": "https://www.knihydobrovsky.cz/prodejny/praha-hostivar",
        "opening_hours": "Mo-Fr 09:00-21:00; Sa,Su 10:00-21:00",
        "names": [
          "Knihy Dobrovsk\u00fd",
          "The Original Barber",
          "Herba zdrav\u00e1 v\u00fd\u017eiva"
        ]
      },
      "geometry": {
        "type": "Point",
        "coordinates": [
          14.5174178,
          50.0533552
        ]
      }
    },
    {
      "type": "Feature",
      "properties": {
        "weight": 1.0,
        "id": 9542943946,
        "hasDetails": true,
        "name": "Tescoma",
        "website": "https://www.tescoma.cz/detail-prodejny/pc-tescoma-praha-vivo",
        "opening_hours": "Mo-Fr 09:00-21:00; Sa,Su 10:00-21:00"
      },
      "geometry": {
        "type": "Point",
        "coordinates": [
          14.5177619,
          50.0533751
        ]
      }
    },
    {
      "type": "Feature",
      "properties": {
        "weight": 1.0,
        "id": 9542943943,
        "hasDetails": true,
        "name": "HS klenoty",
        "opening_hours": "Mo-Su 09:00-21:00"
      },
      "geometry": {
        "type": "Point",
        "coordinates": [
          14.5175938,
          50.0534001
        ]
      }
    },
    {
      "type": "Feature",
      "properties": {
        "weight": 1.0,
        "id": 7701951345,
        "hasDetails": true,
        "name": "TEDi",
        "opening_hours": "Mo-Fr 09:00-21:00; Sa,Su 10:00-21:00",
        "names": [
          "TEDi",
          "Spodn\u00ed pr\u00e1dlo"
        ]
      },
      "geometry": {
        "type": "Point",
        "coordinates": [
          14.5179968,
          50.053421
        ]
      }
    },
    {
      "type": "Feature",
      "properties": {
        "weight": 1.0
      },
      "geometry": {
        "type": "Point",
        "coordinates": [
          14.5168673,
          50.0534417
        ]
      }
    },
    {
      "type": "Feature",
      "properties": {
        "weight": 1.0
      },
      "geometry": {
        "type": "Point",
        "coordinates": [
          14.517295,
          50.0534432
        ]
      }
    },
    {
      "type": "Feature",
      "properties": {
        "weight": 1.0,
        "id": 9542943940,
        "hasDetails": true,
        "name": "Pek\u00e1rna Kab\u00e1t",
        "opening_hours": "Mo-Fr 07:00-21:00; Sa,Su 08:00-21:00",
        "outdoor_seating": "no",
        "names": [
          "Pek\u00e1rna Kab\u00e1t",
          "Premiere Cinemas",
          "Pompo"
        ]
      },
      "geometry": {
        "type": "Point",
        "coordinates": [
          14.5177704,
          50.0534859
        ]
      }
    },
    {
      "type": "Feature",
      "properties": {
        "weight": 1.0,
        "id": 5863161627,
        "hasDetails": true,
        "name": "Lavor",
        "website": "https://pradelny-lavor.cz/cs/branch/lavor-hostivar",
        "opening_hours": "Mo-Su 07:00-22:00",
        "names": [
          "Lavor",
          "Pepco",
          "Optik Progresiv"
        ]
      },
      "geometry": {
        "type": "Point",
        "coordinates": [
          14.5169061,
          50.0535349
        ]
      }
    },
    {
      "type": "Feature",
      "properties": {
        "weight": 1.0,
        "id": 5863161624,
        "hasDetails": true,
        "name": "Zdrav\u00e9 obouv\u00e1n\u00ed",
        "opening_hours": "Mo-Fr 09:00-21:00; Sa,Su 10:00-21:00"
      },
      "geometry": {
        "type": "Point",
        "coordinates": [
          14.517067,
          50.053547
        ]
      }
    },
    {
      "type": "Feature",
      "properties": {
        "weight": 1.0,
        "id": 5863161623,
        "hasDetails": true,
        "name": "SCANquilt",
        "opening_hours": "Mo-Fr 09:00-21:00; Sa,Su 10:00-21:00"
      },
      "geometry": {
        "type": "Point",
        "coordinates": [
          14.5172903,
          50.0535574
        ]
      }
    },
    {
      "type": "Feature",
      "properties": {
        "weight": 1.0,
        "id": 5863161621,
        "hasDetails": true,
        "name": "Zdrav\u00e9 obouv\u00e1n\u00ed",
        "opening_hours": "Mo-Fr 09:00-21:00; Sa,Su 10:00-21:00",
        "names": [
          "Zdrav\u00e9 obouv\u00e1n\u00ed",
          "Klier"
        ]
      },
      "geometry": {
        "type": "Point",
        "coordinates": [
          14.5175144,
          50.0535679
        ]
      }
    },
    {
      "type": "Feature",
      "properties": {
        "weight": 1.0,
        "id": 5863161620,
        "hasDetails": true,
        "opening_hours": "Mo-Fr 09:00-21:00; Sa,Su 10:00-21:00"
      },
      "geometry": {
        "type": "Point",
        "coordinates": [
          14.5176867,
          50.053574
        ]
      }
    },
    {
      "type": "Feature",
      "properties": {
        "weight": 1.0,
        "id": 10871051730,
        "hasDetails": true,
        "name": "Krby a kamna Fortell",
        "address": "Kamelova 3260/1, Praha 10",
        "website": "https://www.krby-fortell.cz",
        "opening_hours": "Mo-Fr 10:00-17:00; Sa 10:00-13:00"
      },
      "geometry": {
        "type": "Point",
        "coordinates": [
          14.5145148,
          50.053575
        ]
      }
    },
    {
      "type": "Feature",
      "properties": {
        "weight": 1.0,
        "id": 13893858233,
        "hasDetails": true,
        "opening_hours": "Mo-Su 08:00-21:00"
      },
      "geometry": {
        "type": "Point",
        "coordinates": [
          14.5178599,
          50.0536042
        ]
      }
    },
    {
      "type": "Feature",
      "properties": {
        "weight": 1.0,
        "id": 12032964377,
        "hasDetails": true,
        "name": "Swiss Automotive Group CZ",
        "address": "Pra\u017esk\u00e1 16",
        "website": "https://sag.cz",
        "opening_hours": "Mo-Fr 08:00-17:00"
      },
      "geometry": {
        "type": "Point",
        "coordinates": [
          14.5230353,
          50.0536063
        ]
      }
    },
    {
      "type": "Feature",
      "properties": {
        "weight": 1.0,
        "id": 100639575,
        "hasDetails": true,
        "name": "Lidl",
        "website": "https://www.lidl.cz/",
        "opening_hours": "Mo-Sa 07:00-22:00; Su 08:00-22:00"
      },
      "geometry": {
        "type": "Point",
        "coordinates": [
          14.5266747,
          50.0536548
        ]
      }
    },
    {
      "type": "Feature",
      "properties": {
        "weight": 1.0
      },
      "geometry": {
        "type": "Point",
        "coordinates": [
          14.3733812,
          50.0536858
        ]
      }
    },
    {
      "type": "Feature",
      "properties": {
        "weight": 1.0,
        "id": 3303885874,
        "hasDetails": true,
        "name": "Salon Petr T\u01d4ma",
        "address": "U Kublova 537/1, Praha 4",
        "website": "https://www.salonpetrtuma.cz",
        "opening_hours": "\"otev\u0159eno dle objedn\u00e1vek\"",
        "names": [
          "Salon Petr T\u01d4ma",
          "Potraviny"
        ]
      },
      "geometry": {
        "type": "Point",
        "coordinates": [
          14.4188699,
          50.0536986
        ]
      }
    },
    {
      "type": "Feature",
      "properties": {
        "weight": 1.0,
        "id": 12728236702,
        "hasDetails": true,
        "name": "Kade\u0159nictv\u00ed",
        "opening_hours": "Mo,We,Th 08:00-12:30; Fr 12:00-17:00; Tu 12:00-18:00"
      },
      "geometry": {
        "type": "Point",
        "coordinates": [
          14.4403957,
          50.0537604
        ]
      }
    },
    {
      "type": "Feature",
      "properties": {
        "weight": 1.0,
        "id": 1776670994,
        "hasDetails": true,
        "opening_hours": "Mo-Su 08:00-19:30"
      },
      "geometry": {
        "type": "Point",
        "coordinates": [
          14.4364579,
          50.0537858
        ]
      }
    },
    {
      "type": "Feature",
      "properties": {
        "weight": 1.0
      },
      "geometry": {
        "type": "Point",
        "coordinates": [
          14.4721739,
          50.0537859
        ]
      }
    },
    {
      "type": "Feature",
      "properties": {
        "weight": 1.0,
        "id": 12647792408,
        "hasDetails": true,
        "opening_hours": "Mo-Su 08:00-22:00"
      },
      "geometry": {
        "type": "Point",
        "coordinates": [
          14.5223617,
          50.0540992
        ]
      }
    },
    {
      "type": "Feature",
      "properties": {
        "weight": 1.0,
        "id": 4822413599,
        "hasDetails": true,
        "name": "Paki",
        "address": "Na Pankr\u00e1ci 76, Praha",
        "website": "https://www.pakibeautysalon.cz/",
        "opening_hours": "Mo-Fr 08:00-20:00; Sa 09:00-15:00"
      },
      "geometry": {
        "type": "Point",
        "coordinates": [
          14.4366107,
          50.0541888
        ]
      }
    },
    {
      "type": "Feature",
      "properties": {
        "weight": 1.0,
        "id": 5303028918,
        "hasDetails": true,
        "name": "Panos",
        "amenity": "fast_food",
        "cuisine": "sandwich",
        "address": "V Z\u00e1\u0159ezu 902, Praha",
        "website": "http://eshop.panos.cz/"
      },
      "geometry": {
        "type": "Point",
        "coordinates": [
          14.3698758,
          50.0543368
        ]
      }
    },
    {
      "type": "Feature",
      "properties": {
        "weight": 1.0,
        "id": 11428722073,
        "hasDetails": true,
        "name": "Ve\u010derka Z\u00e1b\u011bhlick\u00e1 99",
        "opening_hours": "Mo-Su 08:30-21:30"
      },
      "geometry": {
        "type": "Point",
        "coordinates": [
          14.489365,
          50.0543588
        ]
      }
    },
    {
      "type": "Feature",
      "properties": {
        "weight": 1.0,
        "id": 2507627549,
        "hasDetails": true,
        "name": "Hobby car",
        "website": "http://www.hobbycar.cz",
        "opening_hours": "Mo-Fr 09:00-18:00"
      },
      "geometry": {
        "type": "Point",
        "coordinates": [
          14.4881994,
          50.0544045
        ]
      }
    },
    {
      "type": "Feature",
      "properties": {
        "weight": 1.0,
        "id": 12770665333,
        "hasDetails": true,
        "name": "Nandej.cz",
        "website": "https://www.nandej.cz/"
      },
      "geometry": {
        "type": "Point",
        "coordinates": [
          14.4891452,
          50.0544271
        ]
      }
    },
    {
      "type": "Feature",
      "properties": {
        "weight": 1.0
      },
      "geometry": {
        "type": "Point",
        "coordinates": [
          14.4340331,
          50.0544676
        ]
      }
    },
    {
      "type": "Feature",
      "properties": {
        "weight": 1.0,
        "id": 4217421788,
        "hasDetails": true,
        "name": "Autosklo servis.cz",
        "address": "U Forstu, Praha",
        "website": "https://www.autosklocz.cz/autosklo-praha-10",
        "opening_hours": "Mo-Fr 07:30-16:00"
      },
      "geometry": {
        "type": "Point",
        "coordinates": [
          14.5242299,
          50.0544823
        ]
      }
    },
    {
      "type": "Feature",
      "properties": {
        "weight": 1.0,
        "id": 5161955942,
        "hasDetails": true,
        "name": "Antikvari\u00e1t U n\u00e1s",
        "website": "https://www.antik-u-nas.cz/",
        "opening_hours": "Tu,Th 17:00-18:30"
      },
      "geometry": {
        "type": "Point",
        "coordinates": [
          14.4291438,
          50.0545271
        ]
      }
    },
    {
      "type": "Feature",
      "properties": {
        "weight": 1.0,
        "id": 1324405717,
        "hasDetails": true,
        "name": "Ski centrum Babica",
        "website": "https://www.skibaba.cz/",
        "opening_hours": "Mo-Fr 10:00-18:30; Sa 9:00-13:00"
      },
      "geometry": {
        "type": "Point",
        "coordinates": [
          14.4899242,
          50.0545277
        ]
      }
    },
    {
      "type": "Feature",
      "properties": {
        "weight": 1.0,
        "id": 3079690402,
        "hasDetails": true,
        "name": "cztunning.cz",
        "website": "http://www.cztuning.cz/",
        "opening_hours": "Mo-Th 09:00-18:00;Fr 09:00-17:00",
        "names": [
          "cztunning.cz",
          "Maika Potraviny"
        ]
      },
      "geometry": {
        "type": "Point",
        "coordinates": [
          14.4885779,
          50.0545703
        ]
      }
    },
    {
      "type": "Feature",
      "properties": {
        "weight": 1.0
      },
      "geometry": {
        "type": "Point",
        "coordinates": [
          14.5295835,
          50.0546082
        ]
      }
    },
    {
      "type": "Feature",
      "properties": {
        "weight": 1.0,
        "id": 12574313547,
        "hasDetails": true,
        "opening_hours": "Mo-Fr 06:30-19:30; Sa 10:30-19:00"
      },
      "geometry": {
        "type": "Point",
        "coordinates": [
          14.3710632,
          50.0546292
        ]
      }
    },
    {
      "type": "Feature",
      "properties": {
        "weight": 1.0,
        "id": 12770663383,
        "hasDetails": true,
        "name": "Lovely Nails",
        "opening_hours": "Mo-Fr 09:00-20:00; Sa-Su 10:00-18:00"
      },
      "geometry": {
        "type": "Point",
        "coordinates": [
          14.488352,
          50.054634
        ]
      }
    },
    {
      "type": "Feature",
      "properties": {
        "weight": 1.0
      },
      "geometry": {
        "type": "Point",
        "coordinates": [
          14.4728871,
          50.0546535
        ]
      }
    },
    {
      "type": "Feature",
      "properties": {
        "weight": 1.0,
        "id": 10731945594,
        "hasDetails": true,
        "name": "Potraviny, drogerie",
        "opening_hours": "07:00-22:00"
      },
      "geometry": {
        "type": "Point",
        "coordinates": [
          14.4392659,
          50.0546921
        ]
      }
    },
    {
      "type": "Feature",
      "properties": {
        "weight": 1.0,
        "id": 1328340725,
        "hasDetails": true,
        "name": "Salon Bluebel",
        "opening_hours": "Mo-Fr 09:00-19:00"
      },
      "geometry": {
        "type": "Point",
        "coordinates": [
          14.4952992,
          50.0547007
        ]
      }
    },
    {
      "type": "Feature",
      "properties": {
        "weight": 1.0,
        "id": 11414473521,
        "hasDetails": true,
        "name": "Potraviny U plyn\u00e1rny",
        "address": "U Plyn\u00e1rny 790/4, Praha 4",
        "opening_hours": "Mo-Fr 06:30-22:00; Sa,Su 07:30-22:00"
      },
      "geometry": {
        "type": "Point",
        "coordinates": [
          14.4540484,
          50.0549529
        ]
      }
    },
    {
      "type": "Feature",
      "properties": {
        "weight": 1.0
      },
      "geometry": {
        "type": "Point",
        "coordinates": [
          14.4212892,
          50.0550499
        ]
      }
    },
    {
      "type": "Feature",
      "properties": {
        "weight": 1.0,
        "id": 12289689889,
        "hasDetails": true,
        "name": "Family potraviny",
        "opening_hours": "Mo-Fr 07:30-22:00; Sa, Su 08:00-22:00"
      },
      "geometry": {
        "type": "Point",
        "coordinates": [
          14.4948163,
          50.0551126
        ]
      }
    },
    {
      "type": "Feature",
      "properties": {
        "weight": 1.0,
        "id": 3235899370,
        "hasDetails": true,
        "name": "Cukr\u00e1rna Na Pankr\u00e1ci",
        "website": "https://www.zsmv.cz/cukrarna/24/",
        "opening_hours": "Mo-Fr 09:00-17:00"
      },
      "geometry": {
        "type": "Point",
        "coordinates": [
          14.4355029,
          50.055179
        ]
      }
    },
    {
      "type": "Feature",
      "properties": {
        "weight": 1.0
      },
      "geometry": {
        "type": "Point",
        "coordinates": [
          14.5170111,
          50.0552338
        ]
      }
    },
    {
      "type": "Feature",
      "properties": {
        "weight": 1.0
      },
      "geometry": {
        "type": "Point",
        "coordinates": [
          14.4361081,
          50.0553215
        ]
      }
    },
    {
      "type": "Feature",
      "properties": {
        "weight": 1.0,
        "id": 1451799661,
        "hasDetails": true,
        "name": "Bikestore.cz",
        "address": "Podolsk\u00e1 245/116",
        "website": "https://www.bikestore.cz/",
        "opening_hours": "Mo 14:00-17:30, 18:00-19:00; Tu, Th 10:00-12:00, 13:00-16:00; We 10:00-12:00, 13:00-17:00; Fr 10:00-12:00, 13:00-18:00"
      },
      "geometry": {
        "type": "Point",
        "coordinates": [
          14.4202666,
          50.0553435
        ]
      }
    },
    {
      "type": "Feature",
      "properties": {
        "weight": 1.0,
        "id": 11186155486,
        "hasDetails": true,
        "name": "St\u0159ihomat",
        "address": "Z\u00e1b\u011bhlick\u00e1 53, Praha",
        "website": "https://strihomat.cz",
        "opening_hours": "Mo-Su 09:00-20:00"
      },
      "geometry": {
        "type": "Point",
        "coordinates": [
          14.4842344,
          50.0556196
        ]
      }
    },
    {
      "type": "Feature",
      "properties": {
        "weight": 1.0,
        "id": 1324434455,
        "hasDetails": true,
        "name": "Aquasport",
        "opening_hours": "Mo-Fr 09:00-17:00"
      },
      "geometry": {
        "type": "Point",
        "coordinates": [
          14.4839554,
          50.0556874
        ]
      }
    },
    {
      "type": "Feature",
      "properties": {
        "weight": 1.0,
        "id": 3392393208,
        "hasDetails": true,
        "name": "Ve\u010derka Jit\u0159enka",
        "address": "Da\u010dick\u00e9ho 8, Praha"
      },
      "geometry": {
        "type": "Point",
        "coordinates": [
          14.4329109,
          50.0557058
        ]
      }
    },
    {
      "type": "Feature",
      "properties": {
        "weight": 1.0,
        "id": 1324434454,
        "hasDetails": true,
        "name": "Potraviny T&L",
        "opening_hours": "Mo-Fr 09:00-17:00"
      },
      "geometry": {
        "type": "Point",
        "coordinates": [
          14.4837839,
          50.055707
        ]
      }
    },
    {
      "type": "Feature",
      "properties": {
        "weight": 1.0,
        "id": 3131807539,
        "hasDetails": true,
        "name": "Minute Shop",
        "address": "Dru\u017estevn\u00ed ochoz 20, Praha",
        "opening_hours": "Mo-Su,PH 00:00-23:59"
      },
      "geometry": {
        "type": "Point",
        "coordinates": [
          14.4437333,
          50.0557131
        ]
      }
    },
    {
      "type": "Feature",
      "properties": {
        "weight": 1.0,
        "id": 1324434453,
        "hasDetails": true,
        "name": "Podlahov\u00e9 studio Parador",
        "website": "https://iparador.cz/",
        "opening_hours": "Mo-Fr 10:00-18:00"
      },
      "geometry": {
        "type": "Point",
        "coordinates": [
          14.4834744,
          50.0557304
        ]
      }
    },
    {
      "type": "Feature",
      "properties": {
        "weight": 1.0,
        "id": 3222890516,
        "hasDetails": true,
        "name": "Tab\u00e1k",
        "opening_hours": "Mo-Fr 05:30-20:00; Sa,Su 08:00-20:00",
        "names": [
          "Tab\u00e1k",
          "Peka\u0159stv\u00ed MAM Hostomice"
        ]
      },
      "geometry": {
        "type": "Point",
        "coordinates": [
          14.4341968,
          50.0558979
        ]
      }
    },
    {
      "type": "Feature",
      "properties": {
        "weight": 1.0,
        "id": 24241721,
        "hasDetails": true,
        "name": "Kaufland",
        "address": "U Plyn\u00e1rny 1432/64",
        "website": "https://www.kaufland.cz/",
        "opening_hours": "07:00-22:00"
      },
      "geometry": {
        "type": "Point",
        "coordinates": [
          14.4704234,
          50.0559144
        ]
      }
    },
    {
      "type": "Feature",
      "properties": {
        "weight": 1.0
      },
      "geometry": {
        "type": "Point",
        "coordinates": [
          14.4511953,
          50.0559354
        ]
      }
    },
    {
      "type": "Feature",
      "properties": {
        "weight": 1.0,
        "id": 61582827,
        "hasDetails": true,
        "name": "Hates - Richard Harnisch",
        "address": "Na L\u00e1vce 177",
        "website": "https://www.hatesauto.cz",
        "opening_hours": "Mo-Fr 08:00-17:00",
        "names": [
          "Hates - Richard Harnisch",
          "Hates - Jind\u0159ich Tesa\u0159"
        ]
      },
      "geometry": {
        "type": "Point",
        "coordinates": [
          14.4835136,
          50.055963
        ]
      }
    },