{
  "type": "FeatureCollection",
  "features": [
    {
      "type": "Feature",
      "properties": {
        "weight": 1.0,
        "id": 1163618424,
        "hasDetails": true,
        "name": "Tbilisis h\u00f6rna",
        "amenity": "restaurant",
        "cuisine": "georgian;pizza",
        "address": "Olaus Magnus V\u00e4g 14, Johanneshov",
        "website": "https://www.tbilisishorna.se/",
        "opening_hours": "Mo-Th 14:30-22:00; Fr 12:00-23:00; Sa 11:30-23:00; Su 11:30-22:00"
      },
      "geometry": {
        "type": "Point",
        "coordinates": [
          18.0881401,
          59.2981228
        ]
      }
    },
    {
      "type": "Feature",
      "properties": {
        "weight": 1.0,
        "id": 1163619012,
        "hasDetails": true,
        "name": "Aim Aroy Fastfood Thaiwok",
        "amenity": "fast_food",
        "cuisine": "thai",
        "address": "Olaus Magnus V\u00e4g 14, Johanneshov"
      },
      "geometry": {
        "type": "Point",
        "coordinates": [
          18.0877875,
          59.2981268
        ]
      }
    },
    {
      "type": "Feature",
      "properties": {
        "weight": 1.0,
        "id": 1278506317,
        "hasDetails": true,
        "name": "\u00d6lstugan",
        "amenity": "pub",
        "website": "http://olstugan.com",
        "opening_hours": "Mo-Tu 13:00-24:00;We-Th 13:00-01:00;Fr-Sa 11:00-01:00;Su 13:00-24:00"
      },
      "geometry": {
        "type": "Point",
        "coordinates": [
          18.0792152,
          59.2981452
        ]
      }
    },
    {
      "type": "Feature",
      "properties": {
        "weight": 1.0,
        "id": 765260915,
        "hasDetails": true,
        "name": "Gullmarssons",
        "amenity": "pub",
        "website": "http://www.gullmarssons.com",
        "opening_hours": "Mo-Th 11:00-23:00, Fr,Sa 11:00-01:00, Su 11:00-23:00"
      },
      "geometry": {
        "type": "Point",
        "coordinates": [
          18.0796809,
          59.2982862
        ]
      }
    },
    {
      "type": "Feature",
      "properties": {
        "weight": 1.0,
        "id": 712600408,
        "hasDetails": true,
        "name": "Riviera",
        "amenity": "fast_food",
        "cuisine": "pizza",
        "opening_hours": "Mo-Fr 10:00-21:00; Sa,Su 12:00-21:00"
      },
      "geometry": {
        "type": "Point",
        "coordinates": [
          18.0756044,
          59.2982978
        ]
      }
    },
    {
      "type": "Feature",
      "properties": {
        "weight": 1.0,
        "id": 1209267384,
        "hasDetails": true,
        "name": "Willis",
        "amenity": "restaurant",
        "cuisine": "pizza",
        "address": "Olaus Magnus V\u00e4g 13"
      },
      "geometry": {
        "type": "Point",
        "coordinates": [
          18.0874772,
          59.298431
        ]
      }
    },
    {
      "type": "Feature",
      "properties": {
        "weight": 1.0
      },
      "geometry": {
        "type": "Point",
        "coordinates": [
          18.0803495,
          59.2984338
        ]
      }
    },
    {
      "type": "Feature",
      "properties": {
        "weight": 1.0,
        "id": 1278506344,
        "hasDetails": true,
        "name": "Sushi Nikko",
        "amenity": "fast_food",
        "cuisine": "sushi"
      },
      "geometry": {
        "type": "Point",
        "coordinates": [
          18.0790501,
          59.2984393
        ]
      }
    },
    {
      "type": "Feature",
      "properties": {
        "weight": 1.0,
        "id": 11521892848,
        "hasDetails": true,
        "name": "Pizza Punks",
        "amenity": "restaurant",
        "cuisine": "pizza"
      },
      "geometry": {
        "type": "Point",
        "coordinates": [
          18.0894525,
          59.2985065
        ]
      }
    },
    {
      "type": "Feature",
      "properties": {
        "weight": 1.0,
        "id": 712600417,
        "hasDetails": true,
        "name": "Happie Hands",
        "amenity": "fast_food",
        "cuisine": "fast_food;burger",
        "website": "https://www.happiehands.se/",
        "opening_hours": "Mo-Th 11:00-14:00,16:00-22:00; Fr 11:00-22:00; Sa 12:00-22:00; Su 12:00-21:00"
      },
      "geometry": {
        "type": "Point",
        "coordinates": [
          18.0769899,
          59.2985289
        ]
      }
    },
    {
      "type": "Feature",
      "properties": {
        "weight": 1.0,
        "id": 1278506331,
        "hasDetails": true,
        "name": "Sushi Yama",
        "amenity": "restaurant",
        "cuisine": "japanese",
        "website": "https://www.sushiyama.se/restauranger/gullmarsplan-stockholm"
      },
      "geometry": {
        "type": "Point",
        "coordinates": [
          18.0789776,
          59.2985417
        ]
      }
    },
    {
      "type": "Feature",
      "properties": {
        "weight": 1.0,
        "id": 1191548727,
        "hasDetails": true,
        "name": "Tullfritt S\u00f6der",
        "amenity": "fast_food",
        "cuisine": "burger",
        "outdoor_seating": "yes"
      },
      "geometry": {
        "type": "Point",
        "coordinates": [
          18.0798551,
          59.2986851
        ]
      }
    },
    {
      "type": "Feature",
      "properties": {
        "weight": 1.0,
        "id": 132677449,
        "hasDetails": true,
        "name": "Mr. Smash & Falafel",
        "amenity": "fast_food",
        "cuisine": "burger",
        "website": "https://www.arstacrave.se/"
      },
      "geometry": {
        "type": "Point",
        "coordinates": [
          18.0460852,
          59.2987728
        ]
      }
    },
    {
      "type": "Feature",
      "properties": {
        "weight": 1.0,
        "id": 6052754801,
        "hasDetails": true,
        "name": "Bastard Burgers",
        "amenity": "restaurant",
        "cuisine": "burger",
        "website": "https://bastardburgers.com/se/restaurants/gullmarsplan/",
        "opening_hours": "Mo-We 11:00-21:00; Tu 11:00-22:00; Fr-Sa 11:00-23:00; Su 11:00-21:00"
      },
      "geometry": {
        "type": "Point",
        "coordinates": [
          18.0786547,
          59.2988136
        ]
      }
    },
    {
      "type": "Feature",
      "properties": {
        "weight": 1.0,
        "id": 712600426,
        "hasDetails": true,
        "name": "Subway",
        "amenity": "fast_food",
        "cuisine": "sandwich",
        "opening_hours": "Mo-Sa 10:00-22:00; Su 10:00-21:00",
        "outdoor_seating": "no"
      },
      "geometry": {
        "type": "Point",
        "coordinates": [
          18.0802305,
          59.298846
        ]
      }
    },
    {
      "type": "Feature",
      "properties": {
        "weight": 1.0,
        "id": 847823175,
        "hasDetails": true,
        "name": "Il forno da Nova",
        "amenity": "restaurant",
        "cuisine": "italian"
      },
      "geometry": {
        "type": "Point",
        "coordinates": [
          18.0786738,
          59.2989377
        ]
      }
    },
    {
      "type": "Feature",
      "properties": {
        "weight": 1.0
      },
      "geometry": {
        "type": "Point",
        "coordinates": [
          18.0719103,
          59.2990009
        ]
      }
    },
    {
      "type": "Feature",
      "properties": {
        "weight": 1.0
      },
      "geometry": {
        "type": "Point",
        "coordinates": [
          18.0717433,
          59.2990526
        ]
      }
    },
    {
      "type": "Feature",
      "properties": {
        "weight": 1.0,
        "id": 12030805869,
        "hasDetails": true,
        "name": "Espresso House",
        "amenity": "cafe",
        "cuisine": "coffee_shop",
        "names": [
          "Espresso House",
          "Trafiket"
        ],
        "amenities": [
          "cafe",
          "fast_food"
        ]
      },
      "geometry": {
        "type": "Point",
        "coordinates": [
          18.0812458,
          59.2991056
        ]
      }
    },
    {
      "type": "Feature",
      "properties": {
        "weight": 1.0
      },
      "geometry": {
        "type": "Point",
        "coordinates": [
          18.0339192,
          59.2992865
        ]
      }
    },
    {
      "type": "Feature",
      "properties": {
        "weight": 1.0,
        "id": 2571793306,
        "hasDetails": true,
        "name": "Subculture",
        "amenity": "fast_food",
        "cuisine": "sandwich",
        "address": "Sv\u00e4rdl\u00e5ngsplan 11, \u00c5rsta",
        "website": "https://subculturesweden.com/",
        "opening_hours": "Mo-Su 11:00-21:00",
        "outdoor_seating": "no"
      },
      "geometry": {
        "type": "Point",
        "coordinates": [
          18.0301289,
          59.2995566
        ]
      }
    },
    {
      "type": "Feature",
      "properties": {
        "weight": 1.0,
        "id": 9795447604,
        "hasDetails": true,
        "name": "Cr\u00eaperie Rustique",
        "amenity": "restaurant",
        "cuisine": "crepe;crepes;galette",
        "website": "https://creperierustique.se/",
        "opening_hours": "Jul We-Sa 11:00-22:00"
      },
      "geometry": {
        "type": "Point",
        "coordinates": [
          18.0564371,
          59.2996749
        ]
      }
    },
    {
      "type": "Feature",
      "properties": {
        "weight": 1.0,
        "id": 442103717,
        "hasDetails": true,
        "name": "L.A. Bar",
        "amenity": "pub",
        "opening_hours": "Mo-Th 14:00-23:00, Fr 14:00-01:00, Sa 12:00-01:00, Su 12:00-23:00"
      },
      "geometry": {
        "type": "Point",
        "coordinates": [
          18.0566774,
          59.2998091
        ]
      }
    },
    {
      "type": "Feature",
      "properties": {
        "weight": 1.0,
        "id": 5431879532,
        "hasDetails": true,
        "name": "New Bowl Center",
        "amenity": "restaurant",
        "website": "https://www.newbowl.se/"
      },
      "geometry": {
        "type": "Point",
        "coordinates": [
          18.0792769,
          59.2998983
        ]
      }
    },
    {
      "type": "Feature",
      "properties": {
        "weight": 1.0,
        "id": 442103716,
        "hasDetails": true,
        "name": "Bengal Bites",
        "amenity": "restaurant",
        "cuisine": "indian",
        "website": "https://www.bengalbites.se/"
      },
      "geometry": {
        "type": "Point",
        "coordinates": [
          18.0570332,
          59.3000669
        ]
      }
    },
    {
      "type": "Feature",
      "properties": {
        "weight": 1.0,
        "id": 6432884040,
        "hasDetails": true,
        "name": "Hammurabi Restaurang",
        "amenity": "restaurant",
        "cuisine": "arab;mediterranean",
        "website": "http://hammurabi.se",
        "opening_hours": "Tu-Su 11:00-20:00"
      },
      "geometry": {
        "type": "Point",
        "coordinates": [
          18.0563199,
          59.3002756
        ]
      }
    },
    {
      "type": "Feature",
      "properties": {
        "weight": 1.0,
        "id": 1649328070,
        "hasDetails": true,
        "name": "Skanskvarn",
        "amenity": "cafe",
        "outdoor_seating": "yes"
      },
      "geometry": {
        "type": "Point",
        "coordinates": [
          18.0795793,
          59.3007893
        ]
      }
    },
    {
      "type": "Feature",
      "properties": {
        "weight": 1.0
      },
      "geometry": {
        "type": "Point",
        "coordinates": [
          18.0954798,
          59.3009601
        ]
      }
    },
    {
      "type": "Feature",
      "properties": {
        "weight": 1.0,
        "id": 2378804511,
        "hasDetails": true,
        "name": "Lucys Caf\u00e9",
        "amenity": "cafe",
        "opening_hours": "Mo-Fr 07:00-14:00"
      },
      "geometry": {
        "type": "Point",
        "coordinates": [
          18.0975579,
          59.3010031
        ]
      }
    },
    {
      "type": "Feature",
      "properties": {
        "weight": 1.0,
        "id": 2516720337,
        "hasDetails": true,
        "name": "Waynes Coffee",
        "amenity": "cafe",
        "cuisine": "coffee_shop",
        "address": "Hammarby Fabriksv\u00e4g 33"
      },
      "geometry": {
        "type": "Point",
        "coordinates": [
          18.0954489,
          59.3010579
        ]
      }
    },
    {
      "type": "Feature",
      "properties": {
        "weight": 1.0,
        "id": 11216502745,
        "hasDetails": true,
        "name": "Sj\u00f6staden Skybar",
        "amenity": "restaurant",
        "website": "https://www.sjostadenskybar.se/",
        "opening_hours": "Mo-Tu 11:30-23:00, We-Th 11:30-00:00, Fr 11:30-01:00, Sa 12:00-01:00, Su 12:00-23:00"
      },
      "geometry": {
        "type": "Point",
        "coordinates": [
          18.0832754,
          59.3012544
        ]
      }
    },
    {
      "type": "Feature",
      "properties": {
        "weight": 1.0,
        "id": 11966370572,
        "hasDetails": true,
        "name": "Piatto Fresco",
        "amenity": "restaurant",
        "cuisine": "pizza;italian",
        "address": "\u00c5rsta Skolgr\u00e4nd 10",
        "website": "https://www.piattofresco.se/"
      },
      "geometry": {
        "type": "Point",
        "coordinates": [
          18.0297314,
          59.3015269
        ]
      }
    },
    {
      "type": "Feature",
      "properties": {
        "weight": 1.0,
        "id": 1970338717,
        "hasDetails": true,
        "name": "rbg Bar and Grill",
        "amenity": "restaurant",
        "cuisine": "steak_house"
      },
      "geometry": {
        "type": "Point",
        "coordinates": [
          18.1055216,
          59.3015655
        ]
      }
    },
    {
      "type": "Feature",
      "properties": {
        "weight": 1.0,
        "id": 5659015461,
        "hasDetails": true,
        "name": "All\u00e9",
        "amenity": "fast_food",
        "cuisine": "pizza",
        "website": "http://allerestaurang.se",
        "opening_hours": "Mo-Fr 10:00-21:00; Sa 11:00-21:00"
      },
      "geometry": {
        "type": "Point",
        "coordinates": [
          18.1027798,
          59.3017878
        ]
      }
    },
    {
      "type": "Feature",
      "properties": {
        "weight": 1.0,
        "id": 7052054742,
        "hasDetails": true,
        "name": "Madame Thu",
        "amenity": "restaurant",
        "opening_hours": "Mo-Fr 11:00-21:00; Sa 17:00-22:00"
      },
      "geometry": {
        "type": "Point",
        "coordinates": [
          18.103095,
          59.3018144
        ]
      }
    },
    {
      "type": "Feature",
      "properties": {
        "weight": 1.0
      },
      "geometry": {
        "type": "Point",
        "coordinates": [
          18.0949859,
          59.3018879
        ]
      }
    },
    {
      "type": "Feature",
      "properties": {
        "weight": 1.0
      },
      "geometry": {
        "type": "Point",
        "coordinates": [
          18.0965503,
          59.3019211
        ]
      }
    },
    {
      "type": "Feature",
      "properties": {
        "weight": 1.0,
        "id": 5414588717,
        "hasDetails": true,
        "name": "Caf\u00e9 Freddo",
        "amenity": "cafe",
        "opening_hours": "Mo-Fr 07:30-10:30,11:00-14:00",
        "outdoor_seating": "yes"
      },
      "geometry": {
        "type": "Point",
        "coordinates": [
          18.0843041,
          59.3020028
        ]
      }
    },
    {
      "type": "Feature",
      "properties": {
        "weight": 1.0,
        "id": 619890787,
        "hasDetails": true,
        "name": "Copper Club",
        "amenity": "restaurant",
        "cuisine": "asian",
        "website": "https://copperclub.se/",
        "opening_hours": "Mo-Th 16:00-23:00, Fr 16:00-24:00, Sa 16:00-24:00, Su 16:00-22:00"
      },
      "geometry": {
        "type": "Point",
        "coordinates": [
          18.0985878,
          59.3020328
        ]
      }
    },
    {
      "type": "Feature",
      "properties": {
        "weight": 1.0,
        "id": 5779722221,
        "hasDetails": true,
        "name": "Sushi Sun",
        "amenity": "fast_food",
        "cuisine": "sushi",
        "address": "Hammarby All\u00e9 13, Stockholm",
        "website": "https://sushisun.se/",
        "opening_hours": "Mo-Fr 11:00-21:00; Sa-Su 12:00-21:00"
      },
      "geometry": {
        "type": "Point",
        "coordinates": [
          18.0822046,
          59.3020901
        ]
      }
    },
    {
      "type": "Feature",
      "properties": {
        "weight": 1.0,
        "id": 12112968319,
        "hasDetails": true,
        "name": "Elton's",
        "amenity": "cafe",
        "opening_hours": "\"Depending on day/weather\""
      },
      "geometry": {
        "type": "Point",
        "coordinates": [
          18.1212897,
          59.3020992
        ]
      }
    },
    {
      "type": "Feature",
      "properties": {
        "weight": 1.0,
        "id": 246008329,
        "hasDetails": true,
        "name": "Max",
        "amenity": "fast_food",
        "cuisine": "burger",
        "website": "https://www.max.se/sv/Hitta-MAX/Restauranger/Stockholm-Hammarby-Sjostad/",
        "opening_hours": "Sa-Th 10:00-24:00, Fr,Sa 10:00-01:00"
      },
      "geometry": {
        "type": "Point",
        "coordinates": [
          18.1034556,
          59.3021163
        ]
      }
    },
    {
      "type": "Feature",
      "properties": {
        "weight": 1.0,
        "id": 5779722208,
        "hasDetails": true,
        "name": "En Juicebar & Caf\u00e9",
        "amenity": "cafe",
        "cuisine": "juice;coffee_shop;salad;breakfast;soup;acaibowls;burrito",
        "address": "Fredriksdalsgatan 6, Stockholm",
        "website": "https://www.enjuicebar.com",
        "opening_hours": "Mo-Fr 08:00-14:00; Sa 10:00-15:00; Su 11:00-15:00",
        "outdoor_seating": "yes"
      },
      "geometry": {
        "type": "Point",
        "coordinates": [
          18.083024,
          59.3023123
        ]
      }
    },
    {
      "type": "Feature",
      "properties": {
        "weight": 1.0,
        "id": 725383008,
        "hasDetails": true,
        "name": "Sj\u00f6p\u00e4rlan",
        "amenity": "restaurant",
        "cuisine": "pizza",
        "address": "Sickla strand 64, Nacka",
        "website": "http://www.sjoparlan.nu",
        "opening_hours": "Mo 10:30-21:00; Tu-Fr 10:30-21:00; Sa,Su 12:00-21:00"
      },
      "geometry": {
        "type": "Point",
        "coordinates": [
          18.1247861,
          59.3024761
        ]
      }
    },
    {
      "type": "Feature",
      "properties": {
        "weight": 1.0
      },
      "geometry": {
        "type": "Point",
        "coordinates": [
          18.1146713,
          59.3026441
        ]
      }
    },
    {
      "type": "Feature",
      "properties": {
        "weight": 1.0,
        "id": 8956524067,
        "hasDetails": true,
        "name": "Pinchos",
        "amenity": "restaurant",
        "opening_hours": "Mo-Th 16:00-22:00; Fr 16:00-23:00; Sa 12:00-23:00; Su 12:00-22:00"
      },
      "geometry": {
        "type": "Point",
        "coordinates": [
          18.0946321,
          59.3027505
        ]
      }
    },
    {
      "type": "Feature",
      "properties": {
        "weight": 1.0,
        "id": 1813518402,
        "hasDetails": true,
        "name": "Paoly sushi",
        "amenity": "restaurant",
        "cuisine": "sushi"
      },
      "geometry": {
        "type": "Point",
        "coordinates": [
          18.1253079,
          59.3027662
        ]
      }
    },
    {
      "type": "Feature",
      "properties": {
        "weight": 1.0,
        "id": 5776900467,
        "hasDetails": true,
        "name": "Trattoria Grazie",
        "amenity": "restaurant",
        "opening_hours": "Mo,Tu 10:30-14:30,16:30-20:00; We-Fr 10:30-14:30,16:30-21:00; Sa 12:00-21:00; Su 12:00-20:00",
        "outdoor_seating": "yes"
      },
      "geometry": {
        "type": "Point",
        "coordinates": [
          18.0896652,
          59.3028381
        ]
      }
    },
    {
      "type": "Feature",
      "properties": {
        "weight": 1.0,
        "id": 1240104946,
        "hasDetails": true,
        "name": "G\u00f6teborg",
        "amenity": "restaurant",
        "address": "Midskeppsgatan 31, Stockholm",
        "website": "https://www.restauranggoteborg.se/",
        "opening_hours": "Su 12:00-23:00, Mo-Th 15:00-24:00, Fr 11:30-01:00, Sa 12:00-01:00"
      },
      "geometry": {
        "type": "Point",
        "coordinates": [
          18.1078038,
          59.3028426
        ]
      }
    },
    {
      "type": "Feature",
      "properties": {
        "weight": 1.0,
        "id": 3479093874,
        "hasDetails": true,
        "name": "Espresso House",
        "amenity": "cafe",
        "cuisine": "coffee_shop;brunch;lunch",
        "address": "Hammarby All\u00e9 27, Stockholm",
        "opening_hours": "Mo-Fr 07:00-18:00; Sa,Su 09:00-17:00",
        "outdoor_seating": "yes"
      },
      "geometry": {
        "type": "Point",
        "coordinates": [
          18.0878898,
          59.3028569
        ]
      }
    },
    {
      "type": "Feature",
      "properties": {
        "weight": 1.0,
        "id": 5697169285,
        "hasDetails": true,
        "name": "Yaya Mee",
        "amenity": "restaurant",
        "cuisine": "asian",
        "opening_hours": "Mo-Th 11:00-14:30,16:00-20:00; Fr 11:00-14:30,16:00-21:00; Sa 12:00-21:00; Su 12:00-20:00",
        "outdoor_seating": "yes"
      },
      "geometry": {
        "type": "Point",
        "coordinates": [
          18.1011638,
          59.3029154
        ]
      }
    },
    {
      "type": "Feature",
      "properties": {
        "weight": 1.0,
        "id": 10234634788,
        "hasDetails": true,
        "name": "Rockin Grill",
        "amenity": "restaurant",
        "cuisine": "pizza;burger",
        "address": "Hammarby Kaj 4, Stockholm",
        "website": "https://www.rockingrill.se/hammarby-sjostad/",
        "opening_hours": "Mo-Fr 11:00-21:00; Sa-Su 12:00-21:00"
      },
      "geometry": {
        "type": "Point",
        "coordinates": [
          18.0812188,
          59.3030123
        ]
      }
    },
    {
      "type": "Feature",
      "properties": {
        "weight": 1.0,
        "id": 5697169284,
        "hasDetails": true,
        "name": "Le Kebab",
        "amenity": "fast_food",
        "outdoor_seating": "yes"
      },
      "geometry": {
        "type": "Point",
        "coordinates": [
          18.1008674,
          59.3030202
        ]
      }
    },
    {
      "type": "Feature",
      "properties": {
        "weight": 1.0,
        "id": 10234634789,
        "hasDetails": true,
        "name": "Gradi",
        "amenity": "restaurant",
        "cuisine": "italian",
        "address": "Hammarby Kaj 4-6, Stockholm",
        "website": "https://gradi.se",
        "opening_hours": "Mo-Fr 11:00-22:00; Sa-Su 12:00-22:00"
      },
      "geometry": {
        "type": "Point",
        "coordinates": [
          18.0814565,
          59.3030809
        ]
      }
    },
    {
      "type": "Feature",
      "properties": {
        "weight": 1.0,
        "id": 5697169320,
        "hasDetails": true,
        "name": "Mandarin Sea City",
        "amenity": "restaurant",
        "cuisine": "asian",
        "website": "https://sites.google.com/site/wwwmandarinseacityse",
        "opening_hours": "Mo-Th 10:00-21:00;Fr 10:00-22:00;Sa 12:00-22:00;Su 12:00-21:00",
        "outdoor_seating": "yes"
      },
      "geometry": {
        "type": "Point",
        "coordinates": [
          18.1006663,
          59.3030845
        ]
      }
    },
    {
      "type": "Feature",
      "properties": {
        "weight": 1.0,
        "id": 5694849316,
        "hasDetails": true,
        "name": "Akie Sushi",
        "amenity": "fast_food",
        "cuisine": "sushi",
        "opening_hours": "Mo-Fr 10:00-21:00; Sa 11:00-21:00"
      },
      "geometry": {
        "type": "Point",
        "coordinates": [
          18.1036039,
          59.3030893
        ]
      }
    },
    {
      "type": "Feature",
      "properties": {
        "weight": 1.0,
        "id": 12003299628,
        "hasDetails": true,
        "name": "Spisa Pizza",
        "amenity": "restaurant",
        "cuisine": "pizza",
        "opening_hours": "Mo-Fr 11:00-21:00; Sa,Su 12:00-21:00",
        "outdoor_seating": "yes"
      },
      "geometry": {
        "type": "Point",
        "coordinates": [
          18.0912811,
          59.3032247
        ]
      }
    },
    {
      "type": "Feature",
      "properties": {
        "weight": 1.0,
        "id": 5779722172,
        "hasDetails": true,
        "name": "Taco Bar",
        "amenity": "fast_food",
        "website": "https://tacobar.se/",
        "opening_hours": "Mo-Th 10:30-21:00; Fr 10:30-22:00; Sa 12:00-22:00; Su 12:00-21:00"
      },
      "geometry": {
        "type": "Point",
        "coordinates": [
          18.0821979,
          59.3032406
        ]
      }
    },
    {
      "type": "Feature",
      "properties": {
        "weight": 1.0,
        "id": 727716857,
        "hasDetails": true,
        "name": "Subway",
        "amenity": "fast_food",
        "cuisine": "sandwich",
        "opening_hours": "Mo-Fr 10:00-20:00; Sa,Su 11:00-19:00",
        "outdoor_seating": "no"
      },
      "geometry": {
        "type": "Point",
        "coordinates": [
          18.0917576,
          59.3033653
        ]
      }
    },
    {
      "type": "Feature",
      "properties": {
        "weight": 1.0,
        "id": 2955642030,
        "hasDetails": true,
        "name": "All\u00e9 k\u00f6k och bar",
        "amenity": "restaurant",
        "website": "https://www.allekokbar.se/",
        "opening_hours": "Mo-Th 11:00-23:00;Fr 11:00-24:00;Sa 13:00-24:00;Su 13:00-23:00",
        "outdoor_seating": "yes"
      },
      "geometry": {
        "type": "Point",
        "coordinates": [
          18.0998276,
          59.3033697
        ]
      }
    },
    {
      "type": "Feature",
      "properties": {
        "weight": 1.0,
        "id": 727716866,
        "hasDetails": true,
        "name": "Zoro Kolgrill",
        "amenity": "restaurant",
        "opening_hours": "Mo-Fr 10:00-21:00; Sa,Su 12:00-21:00",
        "outdoor_seating": "yes"
      },
      "geometry": {
        "type": "Point",
        "coordinates": [
          18.0899861,
          59.3033752
        ]
      }
    },
    {
      "type": "Feature",
      "properties": {
        "weight": 1.0,
        "id": 1893787500,
        "hasDetails": true,
        "name": "Sushi Oishii",
        "amenity": "fast_food",
        "cuisine": "sushi;thai",
        "opening_hours": "Mo-Fr 11:00-21:00; Sa,Su 12:00-21:00"
      },
      "geometry": {
        "type": "Point",
        "coordinates": [
          18.1174519,
          59.3034595
        ]
      }
    },
    {
      "type": "Feature",
      "properties": {
        "weight": 1.0,
        "id": 727716859,
        "hasDetails": true,
        "name": "Lax",
        "amenity": "restaurant",
        "cuisine": "sushi",
        "opening_hours": "Mo-Fr 11:00-21:00; Sa,Su 12:00-21:00",
        "outdoor_seating": "yes"
      },
      "geometry": {
        "type": "Point",
        "coordinates": [
          18.0922457,
          59.3034786
        ]
      }
    },
    {
      "type": "Feature",
      "properties": {
        "weight": 1.0,
        "id": 5775552225,
        "hasDetails": true,
        "name": "Kasumi Sushi",
        "amenity": "restaurant",
        "opening_hours": "Mo-Fr 11:00-20:00; Sa,Su 12:00-20:00",
        "outdoor_seating": "yes"
      },
      "geometry": {
        "type": "Point",
        "coordinates": [
          18.090498,
          59.3034816
        ]
      }
    },
    {
      "type": "Feature",
      "properties": {
        "weight": 1.0,
        "id": 2955530582,
        "hasDetails": true,
        "name": "The Picts Bar",
        "amenity": "bar",
        "website": "https://thepictsbar.se",
        "opening_hours": "Mo-Tu 15:00-23:00;We-Th 15:00-24:00;Fr 15:00-01:00;Sa 13:00-01:00;Su 13:00-23:00",
        "outdoor_seating": "yes"
      },
      "geometry": {
        "type": "Point",
        "coordinates": [
          18.0994355,
          59.3035016
        ]
      }
    },
    {
      "type": "Feature",
      "properties": {
        "weight": 1.0,
        "id": 3480751955,
        "hasDetails": true,
        "name": "Hammarby Sushi & Dumplings",
        "amenity": "fast_food",
        "cuisine": "chinese;sushi;thai",
        "address": "Hammarby All\u00e9 68A",
        "website": "https://hammarbysushidumplings.com",
        "opening_hours": "Mo-Fr 11:00-21:00; Sa-Su 12:00-21:00"
      },
      "geometry": {
        "type": "Point",
        "coordinates": [
          18.0955279,
          59.3035876
        ]
      }
    },
    {
      "type": "Feature",
      "properties": {
        "weight": 1.0,
        "id": 470526992,
        "hasDetails": true,
        "name": "Phuket Island",
        "amenity": "restaurant",
        "cuisine": "thai",
        "opening_hours": "Mo-Th 10:30-21:00; Fr 10:30-22:00; Sa 12:00-22:00; Su 12:00-21:00",
        "outdoor_seating": "yes"
      },
      "geometry": {
        "type": "Point",
        "coordinates": [
          18.0909727,
          59.3036054
        ]
      }
    },
    {
      "type": "Feature",
      "properties": {
        "weight": 1.0,
        "id": 2955642130,
        "hasDetails": true,
        "name": "Boca Grande",
        "amenity": "restaurant",
        "cuisine": "tapas",
        "outdoor_seating": "yes"
      },
      "geometry": {
        "type": "Point",
        "coordinates": [
          18.0991101,
          59.3036255
        ]
      }
    },
    {
      "type": "Feature",
      "properties": {
        "weight": 1.0,
        "id": 2529002840,
        "hasDetails": true,
        "name": "Bricks Burgers & Steaks",
        "amenity": "restaurant",
        "address": "Marcusplatsen 5D, Nacka",
        "website": "https://www.facebook.com/pages/category/Restaurant/Bricks-Burgers-Sickla-110374031219691/",
        "opening_hours": "Mo-Fr 10:00-22:00; Sa 11:00-22:00; Su 12:00-21:00"
      },
      "geometry": {
        "type": "Point",
        "coordinates": [
          18.1218402,
          59.3037014
        ]
      }
    },
    {
      "type": "Feature",
      "properties": {
        "weight": 1.0,
        "id": 2479988585,
        "hasDetails": true,
        "name": "Campus Food Court",
        "amenity": "restaurant",
        "address": "Experimentgatan 7"
      },
      "geometry": {
        "type": "Point",
        "coordinates": [
          18.1207576,
          59.3037871
        ]
      }
    },
    {
      "type": "Feature",
      "properties": {
        "weight": 1.0,
        "id": 470527001,
        "hasDetails": true,
        "name": "Oh Mamma Mia",
        "amenity": "restaurant",
        "cuisine": "italian",
        "website": "https://www.ohmammamia.se/"
      },
      "geometry": {
        "type": "Point",
        "coordinates": [
          18.0918334,
          59.3038201
        ]
      }
    },
    {
      "type": "Feature",
      "properties": {
        "weight": 1.0,
        "id": 11974715225,
        "hasDetails": true,
        "name": "Skrovet",
        "amenity": "restaurant",
        "website": "https://www.skrovet.com/",
        "opening_hours": "Mo-Su 11:00-21:00"
      },
      "geometry": {
        "type": "Point",
        "coordinates": [
          18.0701757,
          59.303822
        ]
      }
    },
    {
      "type": "Feature",
      "properties": {
        "weight": 1.0,
        "id": 2120843457,
        "hasDetails": true,
        "name": "Kafe Rang",
        "amenity": "cafe",
        "outdoor_seating": "yes"
      },
      "geometry": {
        "type": "Point",
        "coordinates": [
          18.0945727,
          59.3039496
        ]
      }
    },
    {
      "type": "Feature",
      "properties": {
        "weight": 1.0,
        "id": 1647248798,
        "hasDetails": true,
        "name": "Taley",
        "amenity": "restaurant",
        "cuisine": "thai",
        "address": "Hammarby Slussv\u00e4g 15",
        "opening_hours": "\"\u00d6ppet fr\u00e5n 12.00 varje dag enligt skylt utanf\u00f6r.\""
      },
      "geometry": {
        "type": "Point",
        "coordinates": [
          18.0725387,
          59.3039561
        ]
      }
    },
    {
      "type": "Feature",
      "properties": {
        "weight": 1.0,
        "id": 3480751954,
        "hasDetails": true,
        "name": "Tabes k\u00f6k",
        "amenity": "cafe",
        "outdoor_seating": "yes"
      },
      "geometry": {
        "type": "Point",
        "coordinates": [
          18.0981289,
          59.3039562
        ]
      }
    },
    {
      "type": "Feature",
      "properties": {
        "weight": 1.0,
        "id": 1231079353,
        "hasDetails": true,
        "name": "Br\u00f6dernas",
        "amenity": "restaurant",
        "cuisine": "burger;pizza",
        "website": "https://www.brodernas.nu",
        "opening_hours": "Mo-Th 11:00-21:00; Fr-Sa 11:00-22:00; Su 12:00-21:00",
        "outdoor_seating": "yes"
      },
      "geometry": {
        "type": "Point",
        "coordinates": [
          18.0977717,
          59.3040782
        ]
      }
    },
    {
      "type": "Feature",
      "properties": {
        "weight": 1.0,
        "id": 9249778805,
        "hasDetails": true,
        "name": "Lunch.co",
        "amenity": "restaurant",
        "cuisine": "international;regional",
        "address": "Sickla industriv\u00e4g 19, Nacka",
        "website": "https://www.lunch.co/"
      },
      "geometry": {
        "type": "Point",
        "coordinates": [
          18.1183508,
          59.3041021
        ]
      }
    },
    {
      "type": "Feature",
      "properties": {
        "weight": 1.0,
        "id": 5644333314,
        "hasDetails": true,
        "name": "Panitas",
        "amenity": "restaurant",
        "cuisine": "sushi;japanese;korean;thai",
        "address": "Skeppsm\u00e4klargatan 3, Stockholm",
        "website": "https://www.panitas.se",
        "opening_hours": "Mo-Fr 10:00-21:00; Sa-Su 11:00-21:00"
      },
      "geometry": {
        "type": "Point",
        "coordinates": [
          18.1136642,
          59.3042566
        ]
      }
    },
    {
      "type": "Feature",
      "properties": {
        "weight": 1.0,
        "id": 1541177439,
        "hasDetails": true,
        "name": "Thaiboat",
        "amenity": "restaurant",
        "cuisine": "thai",
        "website": "https://thaiboat.se/",
        "outdoor_seating": "yes"
      },
      "geometry": {
        "type": "Point",
        "coordinates": [
          18.0818893,
          59.3043767
        ]
      }
    },
    {
      "type": "Feature",
      "properties": {
        "weight": 1.0,
        "id": 5644333315,
        "hasDetails": true,
        "name": "Fr\u00f6jdas",
        "amenity": "restaurant",
        "address": "Skeppsm\u00e4klargatan 5, Stockholm",
        "website": "https://www.frojdas.se",
        "opening_hours": "Tu-Sa 17:00-22:00"
      },
      "geometry": {
        "type": "Point",
        "coordinates": [
          18.1135395,
          59.3044586
        ]
      }
    },
    {
      "type": "Feature",
      "properties": {
        "weight": 1.0,
        "id": 2959914155,
        "hasDetails": true,
        "name": "Erik's",
        "amenity": "restaurant",
        "cuisine": "burger;pizza",
        "opening_hours": "Mo-Fr 10:00-21:00; Sa-Su 11:00-21:00"
      },
      "geometry": {
        "type": "Point",
        "coordinates": [
          18.0304702,
          59.3045093
        ]
      }
    },
    {
      "type": "Feature",
      "properties": {
        "weight": 1.0,
        "id": 1423351937,
        "hasDetails": true,
        "name": "Hemma hos Kaj",
        "amenity": "restaurant",
        "cuisine": "seafood",
        "website": "https://www.hoskaj.com",
        "outdoor_seating": "yes"
      },
      "geometry": {
        "type": "Point",
        "coordinates": [
          18.0881027,
          59.3045632
        ]
      }
    },
    {
      "type": "Feature",
      "properties": {
        "weight": 1.0,
        "id": 2480869541,
        "hasDetails": true,
        "name": "Thai Korat",
        "amenity": "restaurant",
        "cuisine": "thai",
        "address": "Marcusplatsen 1A, Nacka",
        "website": "https://www.thaikorat.se",
        "opening_hours": "Mo-Fr 14:00-21:00; Sa,Su 11:00-21:00",
        "outdoor_seating": "yes"
      },
      "geometry": {
        "type": "Point",
        "coordinates": [
          18.1229239,
          59.3046826
        ]
      }
    },
    {
      "type": "Feature",
      "properties": {
        "weight": 1.0,
        "id": 2489483611,
        "hasDetails": true,
        "name": "Cinnamon Kitchen",
        "amenity": "restaurant",
        "cuisine": "indian;bengali",
        "address": "Skeppsm\u00e4klargatan 9, Stockholm",
        "website": "https://www.cinnamonkitchen.se/",
        "opening_hours": "Mo-Th 11:00-21:00; Fr 11:00-22:00; Sa 13:00-22:00; Su 13:00-21:00"
      },
      "geometry": {
        "type": "Point",
        "coordinates": [
          18.1132186,
          59.3046944
        ]
      }
    },
    {
      "type": "Feature",
      "properties": {
        "weight": 1.0,
        "id": 5584907011,
        "hasDetails": true,
        "name": "La Pallas",
        "amenity": "restaurant",
        "cuisine": "pizza",
        "website": "https://lapallas.se",
        "opening_hours": "Mo-Su 11:00-21:00"
      },
      "geometry": {
        "type": "Point",
        "coordinates": [
          18.106786,
          59.3048075
        ]
      }
    },
    {
      "type": "Feature",
      "properties": {
        "weight": 1.0,
        "id": 5520565280,
        "hasDetails": true,
        "name": "IMA Stockholm",
        "amenity": "restaurant",
        "cuisine": "sushi",
        "opening_hours": "Mo-Fr 11:00-20:00; Sa,Su 12:00-20:00"
      },
      "geometry": {
        "type": "Point",
        "coordinates": [
          18.1059263,
          59.3048641
        ]
      }
    },
    {
      "type": "Feature",
      "properties": {
        "weight": 1.0,
        "id": 1893787299,
        "hasDetails": true,
        "name": "Sicklag\u00e5rden",
        "amenity": "restaurant",
        "cuisine": "international;regional",
        "address": "Fannys v\u00e4g 5, Nacka",
        "website": "https://www.sicklagarden.com/",
        "opening_hours": "Mo-Tu 09:00-22:00; We-Th 09:00-23:00; Fr 09:00-01:00"
      },
      "geometry": {
        "type": "Point",
        "coordinates": [
          18.1145692,
          59.3048731
        ]
      }
    },
    {
      "type": "Feature",
      "properties": {
        "weight": 1.0,
        "id": 9467366479,
        "hasDetails": true,
        "name": "TOVE",
        "amenity": "restaurant",
        "cuisine": "swedish",
        "website": "https://restaurangtove.se",
        "opening_hours": "Mo-Th 10:30-22:00; Fr 10:30-23:00; Sa 13:00-23:00; Su 13:00-21:00"
      },
      "geometry": {
        "type": "Point",
        "coordinates": [
          18.030666,
          59.3049772
        ]
      }
    },
    {
      "type": "Feature",
      "properties": {
        "weight": 1.0,
        "id": 12004388073,
        "hasDetails": true,
        "name": "Kennys Gelato",
        "amenity": "cafe",
        "cuisine": "ice_cream",
        "outdoor_seating": "yes"
      },
      "geometry": {
        "type": "Point",
        "coordinates": [
          18.1209213,
          59.3049962
        ]
      }
    },
    {
      "type": "Feature",
      "properties": {
        "weight": 1.0,
        "id": 2120486934,
        "hasDetails": true,
        "name": "B\u00e5tbryggans",
        "amenity": "cafe",
        "address": "Babordsgatan 25, Stockholm",
        "outdoor_seating": "yes"
      },
      "geometry": {
        "type": "Point",
        "coordinates": [
          18.1004474,
          59.3050668
        ]
      }
    },
    {
      "type": "Feature",
      "properties": {
        "weight": 1.0,
        "id": 2475666543,
        "hasDetails": true,
        "name": "Taco Bar",
        "amenity": "fast_food",
        "cuisine": "tex-mex",
        "address": "Marcusplatsen 1C, Nacka",
        "website": "https://tacobar.se/restauranger/taco-bar-sickla/",
        "opening_hours": "Mo-Su 11:00-21:00",
        "outdoor_seating": "yes",
        "names": [
          "Taco Bar",
          "Libanesen"
        ],
        "amenities": [
          "fast_food",
          "restaurant"
        ]
      },
      "geometry": {
        "type": "Point",
        "coordinates": [
          18.1221508,
          59.3051288
        ]
      }
    },
    {
      "type": "Feature",
      "properties": {
        "weight": 1.0,
        "id": 727716864,
        "hasDetails": true,
        "name": "Texas Longhorn",
        "amenity": "restaurant",
        "cuisine": "steak_house",
        "website": "https://www.texaslonghorn.se/hammarbysjostad/",
        "opening_hours": "Mo 11:00-14:00,17:00-21:00;Tu-Fr 11:00-14:00,17:00-22:00;Sa 12:00-22:00;Su 12:00-21:00",
        "outdoor_seating": "yes"
      },
      "geometry": {
        "type": "Point",
        "coordinates": [
          18.0901674,
          59.3051292
        ]
      }
    },
    {
      "type": "Feature",
      "properties": {
        "weight": 1.0
      },
      "geometry": {
        "type": "Point",
        "coordinates": [
          18.1207612,
          59.3052049
        ]
      }
    },
    {
      "type": "Feature",
      "properties": {
        "weight": 1.0,
        "id": 1893787304,
        "hasDetails": true,
        "name": "Minh",
        "amenity": "restaurant",
        "opening_hours": "Mo-Su 11:00-21:00"
      },
      "geometry": {
        "type": "Point",
        "coordinates": [
          18.127431,
          59.3052389
        ]
      }
    },
    {
      "type": "Feature",
      "properties": {
        "weight": 1.0,
        "id": 11246811997,
        "hasDetails": true,
        "name": "No.\u00e9",
        "amenity": "restaurant",
        "cuisine": "ramen;sushi",
        "address": "Marcusplatsen 1b, Nacka",
        "opening_hours": "Mo-Sa 10:00-21:00; Su 10:00-20:00",
        "outdoor_seating": "no"
      },
      "geometry": {
        "type": "Point",
        "coordinates": [
          18.122643,
          59.3052758
        ]
      }
    },
    {
      "type": "Feature",
      "properties": {
        "weight": 1.0,
        "id": 2392169638,
        "hasDetails": true,
        "name": "Bistro Sickla",
        "amenity": "restaurant",
        "address": "Marcusplatsen 17, Nacka",
        "website": "https://bistrosickla.se",
        "opening_hours": "Mo-Th 09:00-21:30, Fr 09:00-22:30, Sa 11:00-22:30, Su 11:00-21:30"
      },
      "geometry": {
        "type": "Point",
        "coordinates": [
          18.1213836,
          59.3052863
        ]
      }
    },
    {
      "type": "Feature",
      "properties": {
        "weight": 1.0,
        "id": 5501707772,
        "hasDetails": true,
        "name": "Bodino",
        "amenity": "fast_food",
        "cuisine": "pizza",
        "opening_hours": "Mo-Fr 11:00-21:00; Sa 12:00-21:00",
        "names": [
          "Bodino",
          "Or\u00e9o"
        ],
        "amenities": [
          "fast_food",
          "restaurant"
        ]
      },
      "geometry": {
        "type": "Point",
        "coordinates": [
          18.1065296,
          59.3053308
        ]
      }
    },
    {
      "type": "Feature",
      "properties": {
        "weight": 1.0,
        "id": 5769047291,
        "hasDetails": true,
        "name": "Restaurang Luma Park",
        "amenity": "restaurant",
        "opening_hours": "Mo-Fr 08:00-16:30"
      },
      "geometry": {
        "type": "Point",
        "coordinates": [
          18.0955231,
          59.3053506
        ]
      }
    },
    {
      "type": "Feature",
      "properties": {
        "weight": 1.0,
        "id": 617285155,
        "hasDetails": true,
        "name": "Nya Carnegiebryggeriet",
        "amenity": "restaurant",
        "cuisine": "Beer",
        "website": "https://www.nyacarnegiebryggeriet.se/",
        "opening_hours": "Tu-Th 11:30-23:00; Fr,Sa 11:30-24:00",
        "outdoor_seating": "yes"
      },
      "geometry": {
        "type": "Point",
        "coordinates": [
          18.0985902,
          59.3054102
        ]
      }
    },
    {
      "type": "Feature",
      "properties": {
        "weight": 1.0,
        "id": 727716854,
        "hasDetails": true,
        "name": "Tezukuri",
        "amenity": "restaurant",
        "cuisine": "japanese",
        "website": "https://www.tezukurisushi.com/",
        "opening_hours": "Mo-Fr 11:00-22:00;Sa-Su 12:00-22:00",
        "outdoor_seating": "yes"
      },
      "geometry": {
        "type": "Point",
        "coordinates": [
          18.0915874,
          59.3054549
        ]
      }
    },
    {
      "type": "Feature",
      "properties": {
        "weight": 1.0,
        "id": 5501707773,
        "hasDetails": true,
        "name": "Namaskaar",
        "amenity": "restaurant",
        "cuisine": "indian",
        "website": "https://namaskaar.se/",
        "opening_hours": "Mo-Sa 16:00-22:00; Su 16:00-21:00"
      },
      "geometry": {
        "type": "Point",
        "coordinates": [
          18.1066863,
          59.3054566
        ]
      }
    },
    {
      "type": "Feature",
      "properties": {
        "weight": 1.0,
        "id": 434473554,
        "hasDetails": true,
        "name": "Sj\u00f6stadens Marina",
        "amenity": "restaurant",
        "opening_hours": "Mo 11:00-22:00, Tu-Th 11:00-23:00, Fr 10:30-24:00, Sa 12:00-24:00, Su 12:00-22:00",
        "outdoor_seating": "yes"
      },
      "geometry": {
        "type": "Point",
        "coordinates": [
          18.099477,
          59.3054935
        ]
      }
    },
    {
      "type": "Feature",
      "properties": {
        "weight": 1.0,
        "id": 2505020252,
        "hasDetails": true,
        "name": "Naked Juice Bar",
        "amenity": "cafe",
        "address": "Simbagatan 18"
      },
      "geometry": {
        "type": "Point",
        "coordinates": [
          18.1234525,
          59.305616
        ]
      }
    },
    {
      "type": "Feature",
      "properties": {
        "weight": 1.0,
        "id": 5600694867,
        "hasDetails": true,
        "name": "Minari Sushi",
        "amenity": "fast_food",
        "cuisine": "japanese;korean",
        "address": "Skeppsm\u00e4klargatan 37, Stockholm",
        "website": "https://www.minarisushi.se/",
        "opening_hours": "Mo-Sa 11:00-20:00; Su 11:00-20:00"
      },
      "geometry": {
        "type": "Point",
        "coordinates": [
          18.1126419,
          59.3057056
        ]
      }
    },
    {
      "type": "Feature",
      "properties": {
        "weight": 1.0,
        "id": 11232998553,
        "hasDetails": true,
        "name": "ChopChop Asian Express",
        "amenity": "fast_food",
        "address": "Siroccogatan 6",
        "website": "https://chopchop.se/",
        "opening_hours": "Mo-Sa 10:00-21:00; Su 11:00-21:00",
        "outdoor_seating": "no"
      },
      "geometry": {
        "type": "Point",
        "coordinates": [
          18.1278533,
          59.3057695
        ]
      }
    },
    {
      "type": "Feature",
      "properties": {
        "weight": 1.0,
        "id": 2505020264,
        "hasDetails": true,
        "name": "Espresso House",
        "amenity": "cafe",
        "cuisine": "coffee_shop",
        "address": "Simbagatan 20",
        "website": "https://www.espressohouse.se/",
        "outdoor_seating": "no"
      },
      "geometry": {
        "type": "Point",
        "coordinates": [
          18.1238897,
          59.3057721
        ]
      }
    },
    {
      "type": "Feature",
      "properties": {
        "weight": 1.0,
        "id": 10726003943,
        "hasDetails": true,
        "name": "Sushi Bay",
        "amenity": "restaurant",
        "cuisine": "sushi"
      },
      "geometry": {
        "type": "Point",
        "coordinates": [
          18.0367235,
          59.3058102
        ]
      }
    },
    {
      "type": "Feature",
      "properties": {
        "weight": 1.0,
        "id": 2505020257,
        "hasDetails": true,
        "name": "Coffehouse by George",
        "amenity": "cafe",
        "address": "J\u00e4rnv\u00e4gsgatan 5"
      },
      "geometry": {
        "type": "Point",
        "coordinates": [
          18.1264469,
          59.3059411
        ]
      }
    },
    {
      "type": "Feature",
      "properties": {
        "weight": 1.0,
        "id": 5598964874,
        "hasDetails": true,
        "name": "Al Porto",
        "amenity": "fast_food",
        "cuisine": "pizza"
      },
      "geometry": {
        "type": "Point",
        "coordinates": [
          18.1077981,
          59.3059602
        ]
      }
    },
    {
      "type": "Feature",
      "properties": {
        "weight": 1.0,
        "id": 13446330847,
        "hasDetails": true,
        "name": "Smash N Grab",
        "amenity": "fast_food",
        "cuisine": "burger",
        "website": "https://smashngrab.se/smash-n-grab-arstadal/",
        "opening_hours": "Tu-Sa 11:00-20:00; Su 13:00-20:00"
      },
      "geometry": {
        "type": "Point",
        "coordinates": [
          18.0303074,
          59.3059707
        ]
      }
    },
    {
      "type": "Feature",
      "properties": {
        "weight": 1.0,
        "id": 2475666538,
        "hasDetails": true,
        "name": "Holy Kebab",
        "amenity": "fast_food",
        "cuisine": "kebab",
        "address": "J\u00e4rnv\u00e4gsgatan 20",
        "opening_hours": "Mo-Th 11:00-20:00; Fr 10:30-21:00; Sa 12:00-21:00; Su 12:00-20:00",
        "names": [
          "Holy Kebab",
          "Bastard Burgers"
        ],
        "amenities": [
          "fast_food",
          "restaurant"
        ]
      },
      "geometry": {
        "type": "Point",
        "coordinates": [
          18.1212227,
          59.3060006
        ]
      }
    },
    {
      "type": "Feature",
      "properties": {
        "weight": 1.0,
        "id": 9903774317,
        "hasDetails": true,
        "name": "V\u00e4varns kaffe",
        "amenity": "cafe",
        "address": "B\u00e5tbyggargatan 24",
        "opening_hours": "Mo 07:00-11:00; Tu-Fr 07:00-15:00; Sa,Su 10:00-15:00"
      },
      "geometry": {
        "type": "Point",
        "coordinates": [
          18.1091373,
          59.3060034
        ]
      }
    },
    {
      "type": "Feature",
      "properties": {
        "weight": 1.0,
        "id": 1507234011,
        "hasDetails": true,
        "name": "Pepe Nero",
        "amenity": "restaurant",
        "cuisine": "pizza;kebab;italian",
        "website": "https://www.pepeneroarstadal.se",
        "opening_hours": "Mo-Fr 09:00-21:00; Sa-Su 11:00-21:00"
      },
      "geometry": {
        "type": "Point",
        "coordinates": [
          18.032393,
          59.3060136
        ]
      }
    },
    {
      "type": "Feature",
      "properties": {
        "weight": 1.0,
        "id": 5334913928,
        "hasDetails": true,
        "name": "Hanami Hawaiian Pok\u00e9 & Sushi",
        "amenity": "restaurant",
        "cuisine": "sushi",
        "opening_hours": "Mo-Th 11:00-20:00; Fr 11:00-20:30; Sa-Su 12:00-20:00"
      },
      "geometry": {
        "type": "Point",
        "coordinates": [
          18.0325963,
          59.3060444
        ]
      }
    },
    {
      "type": "Feature",
      "properties": {
        "weight": 1.0,
        "id": 11076492030,
        "hasDetails": true,
        "name": "Ponte & Simone",
        "amenity": "restaurant",
        "cuisine": "italian",
        "website": "https://www.pontesimone.se/",
        "opening_hours": "Mo-Su 11:00-21:00",
        "outdoor_seating": "yes"
      },
      "geometry": {
        "type": "Point",
        "coordinates": [
          18.0356973,
          59.3060783
        ]
      }
    },
    {
      "type": "Feature",
      "properties": {
        "weight": 1.0,
        "id": 2505023065,
        "hasDetails": true,
        "name": "Joe & The Juice",
        "amenity": "cafe",
        "cuisine": "coffee_shop",
        "address": "J\u00e4rnv\u00e4gsgatan 1"
      },
      "geometry": {
        "type": "Point",
        "coordinates": [
          18.1270279,
          59.3060946
        ]
      }
    },
    {
      "type": "Feature",
      "properties": {
        "weight": 1.0,
        "id": 8914758916,
        "hasDetails": true,
        "name": "Lubnan Kajen",
        "amenity": "restaurant",
        "cuisine": "lebanese",
        "opening_hours": "Mo-Fr 11:00-14:00, Mo-Th 15:00-23:00, Fr,Sa 13:00-01:00, Su 13:00-23:00"
      },
      "geometry": {
        "type": "Point",
        "coordinates": [
          18.0354217,
          59.3061152
        ]
      }
    },
    {
      "type": "Feature",
      "properties": {
        "weight": 1.0,
        "id": 686669970,
        "hasDetails": true,
        "name": "Bastard Burgers",
        "amenity": "restaurant",
        "cuisine": "burger",
        "address": "Lugnets All\u00e9 75",
        "website": "https://bastardburgers.com/se/restaurants/hammarby-sjostad/",
        "opening_hours": "Mo-Th 11:00-20:00; Fr-Sa 11:00-21:00; Su 12:00-20:00",
        "outdoor_seating": "yes"
      },
      "geometry": {
        "type": "Point",
        "coordinates": [
          18.1070914,
          59.3061252
        ]
      }
    },
    {
      "type": "Feature",
      "properties": {
        "weight": 1.0,
        "id": 11523628108,
        "hasDetails": true,
        "name": "3Sixty",
        "amenity": "restaurant",
        "website": "https://www.3sixtyskybar.se/",
        "opening_hours": "Tu-Th 16:00-23:00; Fr-Sa 16:00-24:00"
      },
      "geometry": {
        "type": "Point",
        "coordinates": [
          18.0351583,
          59.3061695
        ]
      }
    },
    {
      "type": "Feature",
      "properties": {
        "weight": 1.0,
        "id": 7244921563,
        "hasDetails": true,
        "name": "Oh Pok\u00e9",
        "amenity": "restaurant",
        "cuisine": "hawaiian",
        "website": "https://ohpoke.se/",
        "opening_hours": "Mo-Su 11:00-20:00"
      },
      "geometry": {
        "type": "Point",
        "coordinates": [
          18.11176,
          59.3062158
        ]
      }
    },
    {
      "type": "Feature",
      "properties": {
        "weight": 1.0,
        "id": 2452467707,
        "hasDetails": true,
        "name": "Ristorante Siciliana",
        "amenity": "restaurant",
        "address": "Smedjegatan 15, Nacka",
        "opening_hours": "Mo-Fr 10:00-20:00; Sa,Su 10:00-19:00",
        "outdoor_seating": "yes"
      },
      "geometry": {
        "type": "Point",
        "coordinates": [
          18.1226337,
          59.306225
        ]
      }
    },
    {
      "type": "Feature",
      "properties": {
        "weight": 1.0,
        "id": 5310281393,
        "hasDetails": true,
        "name": "Haandi",
        "amenity": "restaurant",
        "cuisine": "indian",
        "website": "https://haandi.se/"
      },
      "geometry": {
        "type": "Point",
        "coordinates": [
          18.0322898,
          59.3064883
        ]
      }
    },
    {
      "type": "Feature",
      "properties": {
        "weight": 1.0,
        "id": 5775168578,
        "hasDetails": true,
        "name": "Br\u00f6dernas",
        "amenity": "restaurant",
        "cuisine": "burger",
        "opening_hours": "Mo-Th 11:00-14:00,16:30-21:00; Fr 11:00-22:00; Sa 12:00-22:00; Su 12:00-21:00"
      },
      "geometry": {
        "type": "Point",
        "coordinates": [
          18.0334682,
          59.3066191
        ]
      }
    },
    {
      "type": "Feature",
      "properties": {
        "weight": 1.0,
        "id": 5310281386,
        "hasDetails": true,
        "name": "Allgotths",
        "amenity": "ice_cream",
        "website": "https://allgotths.se/",
        "opening_hours": "Mo-Th 11:00-21:00; Fr-Su 11:00-22:00"
      },
      "geometry": {
        "type": "Point",
        "coordinates": [
          18.0311486,
          59.3067644
        ]
      }
    },
    {
      "type": "Feature",
      "properties": {
        "weight": 1.0,
        "id": 991746405,
        "hasDetails": true,
        "name": "Wong Kee",
        "amenity": "restaurant",
        "cuisine": "asian",
        "website": "https://www.wongkee.se/",
        "opening_hours": "Mo-Fr 10:30-21:30; Sa-Su 11:00-21:30",
        "outdoor_seating": "no"
      },
      "geometry": {
        "type": "Point",
        "coordinates": [
          18.0290177,
          59.3069965
        ]
      }
    },
    {
      "type": "Feature",
      "properties": {
        "weight": 1.0
      },
      "geometry": {
        "type": "Point",
        "coordinates": [
          18.0772281,
          59.3070347
        ]
      }
    },
    {
      "type": "Feature",
      "properties": {
        "weight": 1.0,
        "id": 703479153,
        "hasDetails": true,
        "name": "Oliven Due",
        "amenity": "restaurant",
        "cuisine": "pizza",
        "website": "https://olivenduepizzeria.se",
        "opening_hours": "Mo-Fr 10:00-21:00; Sa 11:00-21:00; Su 12:00-21:00"
      },
      "geometry": {
        "type": "Point",
        "coordinates": [
          18.0804243,
          59.3070652
        ]
      }
    },
    {
      "type": "Feature",
      "properties": {
        "weight": 1.0,
        "id": 5272588840,
        "hasDetails": true,
        "name": "Sj\u00f6viks pizza & kebab",
        "amenity": "fast_food",
        "outdoor_seating": "no"
      },
      "geometry": {
        "type": "Point",
        "coordinates": [
          18.0292022,
          59.3070687
        ]
      }
    },
    {
      "type": "Feature",
      "properties": {
        "weight": 1.0,
        "id": 8549786758,
        "hasDetails": true,
        "name": "Bryggans glasskiosk",
        "amenity": "ice_cream",
        "opening_hours": "Mo-Su 11:00-20:00",
        "outdoor_seating": "yes"
      },
      "geometry": {
        "type": "Point",
        "coordinates": [
          18.1069444,
          59.3071582
        ]
      }
    },
    {
      "type": "Feature",
      "properties": {
        "weight": 1.0,
        "id": 9900000650,
        "hasDetails": true,
        "name": "Caf\u00e9 Caminito",
        "amenity": "bar",
        "website": "https://instagram.com/cafecaminito_stockholm?igshid=YmMyMTA2M2Y=",
        "outdoor_seating": "yes"
      },
      "geometry": {
        "type": "Point",
        "coordinates": [
          18.0558458,
          59.307254
        ]
      }
    },
    {
      "type": "Feature",
      "properties": {
        "weight": 1.0,
        "id": 5258213921,
        "hasDetails": true,
        "name": "MGL Sushi",
        "amenity": "restaurant",
        "cuisine": "sushi",
        "website": "https://mglsushi.se",
        "opening_hours": "Mo-Th 11:00-21:00; Fr 11:00-22:00; Sa 12:00-22:00; Su 12:00-21:00",
        "outdoor_seating": "yes"
      },
      "geometry": {
        "type": "Point",
        "coordinates": [
          18.0268205,
          59.3072681
        ]
      }
    },
    {
      "type": "Feature",
      "properties": {
        "weight": 1.0,
        "id": 1541176967,
        "hasDetails": true,
        "name": "City Biljard",
        "amenity": "bar",
        "opening_hours": "Mo-Th 16:00-24:00; Fr-Sa 16:00-01:00; Su off"
      },
      "geometry": {
        "type": "Point",
        "coordinates": [
          18.0770839,
          59.3073154
        ]
      }
    },
    {
      "type": "Feature",
      "properties": {
        "weight": 1.0,
        "id": 1639251910,
        "hasDetails": true,
        "name": "Maestro",
        "amenity": "restaurant",
        "cuisine": "greek",
        "website": "https://www.restaurangmaestro.se/",
        "opening_hours": "Mo closed; Tu-Sa 16:00-23:00; Su 16:00-22:00"
      },
      "geometry": {
        "type": "Point",
        "coordinates": [
          18.0691732,
          59.3073957
        ]
      }
    },
    {
      "type": "Feature",
      "properties": {
        "weight": 1.0,
        "id": 1639251921,
        "hasDetails": true,
        "name": "Caff\u00e8 Nero",
        "amenity": "cafe",
        "cuisine": "coffee_shop",
        "website": "https://caffenero.com/se/stores",
        "opening_hours": "Mo-Fr 07:00-19:00; Sa,Su 08:00-18:00",
        "outdoor_seating": "yes"
      },
      "geometry": {
        "type": "Point",
        "coordinates": [
          18.0756158,
          59.3074191
        ]
      }
    },
    {
      "type": "Feature",
      "properties": {
        "weight": 1.0,
        "id": 1541177386,
        "hasDetails": true,
        "name": "\u00d6lkemi Bryggeri",
        "amenity": "restaurant",
        "website": "https://olkemi.se",
        "opening_hours": "Mo closed; Tu-Th 11:00-23:00; Fr 11:00-24:00; Sa 12:00-24:00; Su 12:00-20:00",
        "outdoor_seating": "yes"
      },
      "geometry": {
        "type": "Point",
        "coordinates": [
          18.0789075,
          59.3074835
        ]
      }
    },
    {
      "type": "Feature",
      "properties": {
        "weight": 1.0
      },
      "geometry": {
        "type": "Point",
        "coordinates": [
          18.0850977,
          59.3074878
        ]
      }
    },
    {
      "type": "Feature",
      "properties": {
        "weight": 1.0,
        "id": 1277537526,
        "hasDetails": true,
        "name": "Mama Ye's",
        "amenity": "restaurant",
        "cuisine": "asian",
        "website": "http://www.mamayes.se/",
        "outdoor_seating": "yes"
      },
      "geometry": {
        "type": "Point",
        "coordinates": [
          18.0301795,
          59.3075449
        ]
      }
    },
    {
      "type": "Feature",
      "properties": {
        "weight": 1.0,
        "id": 1541177393,
        "hasDetails": true,
        "name": "Amici Nostri",
        "amenity": "pub",
        "website": "https://amicinostri.se"
      },
      "geometry": {
        "type": "Point",
        "coordinates": [
          18.0771909,
          59.3076062
        ]
      }
    },
    {
      "type": "Feature",
      "properties": {
        "weight": 1.0,
        "id": 1541176952,
        "hasDetails": true,
        "name": "The Border",
        "amenity": "fast_food",
        "cuisine": "american;burger;burritos",
        "website": "https://theborder.se",
        "opening_hours": "Mo-Tu 11:00-21:00; We-Fr 11:00-22:30; Sa 12:00-22:30; Su 12:00-21:00"
      },
      "geometry": {
        "type": "Point",
        "coordinates": [
          18.0790401,
          59.3076129
        ]
      }
    },
    {
      "type": "Feature",
      "properties": {
        "weight": 1.0,
        "id": 1541177909,
        "hasDetails": true,
        "name": "Monster Chicken",
        "amenity": "fast_food",
        "cuisine": "korean",
        "website": "https://www.monsterchicken.se/",
        "opening_hours": "Mo off; Tu-Th 11:00-14:00,15:00-23:00; Fr 11:00-14:00,15:00-24:00; Sa 12:00-24:00; Su 12:00-23:00"
      },
      "geometry": {
        "type": "Point",
        "coordinates": [
          18.0776671,
          59.3076763
        ]
      }
    },
    {
      "type": "Feature",
      "properties": {
        "weight": 1.0,
        "id": 858575535,
        "hasDetails": true,
        "name": "Bankomat",
        "amenity": "restaurant",
        "opening_hours": "Mo-Fr 10:30-24:00; Sa 12:00-24:00; Su 12:00-23:00",
        "outdoor_seating": "yes"
      },
      "geometry": {
        "type": "Point",
        "coordinates": [
          18.0305063,
          59.3076959
        ]
      }
    },
    {
      "type": "Feature",
      "properties": {
        "weight": 1.0,
        "id": 552513994,
        "hasDetails": true,
        "name": "Wallins",
        "amenity": "cafe",
        "website": "http://www.wallinsbageri.com/",
        "opening_hours": "Mo-Fr 07:00-18:00; Sa 09:00-17:00; Su 10:00-16:00"
      },
      "geometry": {
        "type": "Point",
        "coordinates": [
          18.0734592,
          59.3077156
        ]
      }
    },
    {
      "type": "Feature",
      "properties": {
        "weight": 1.0,
        "id": 11187313521,
        "hasDetails": true,
        "name": "HaQet",
        "amenity": "fast_food",
        "cuisine": "regional",
        "website": "https://swedishstreetfood.se",
        "opening_hours": "Mo-Tu 11:00-21:00; We-Th 11:00-22:00; Fr 11:00-23:00; Sa 12:00-23:00; Su 12:00-21:00"
      },
      "geometry": {
        "type": "Point",
        "coordinates": [
          18.0779983,
          59.3077231
        ]
      }
    },
    {
      "type": "Feature",
      "properties": {
        "weight": 1.0,
        "id": 1541176932,
        "hasDetails": true,
        "name": "Bacchanale",
        "amenity": "restaurant",
        "website": "https://www.bacchanalesthlm.com/",
        "opening_hours": "Mo-Fr 17:00-23:30; Sa 14:00-23:00"
      },
      "geometry": {
        "type": "Point",
        "coordinates": [
          18.078202,
          59.3077493
        ]
      }
    },
    {
      "type": "Feature",
      "properties": {
        "weight": 1.0,
        "id": 1541176960,
        "hasDetails": true,
        "name": "China!",
        "amenity": "restaurant",
        "cuisine": "chinese",
        "website": "https://restaurantchina.se",
        "opening_hours": "Mo-Th 11:00-14:00,16:00-22:00; Fr 11:00-14:00,16:00-23:00; Sa 12:00-23:00; Su 12:00-22:00"
      },
      "geometry": {
        "type": "Point",
        "coordinates": [
          18.0785856,
          59.307798
        ]
      }
    },
    {
      "type": "Feature",
      "properties": {
        "weight": 1.0,
        "id": 1258633870,
        "hasDetails": true,
        "name": "Check in Thai",
        "amenity": "fast_food",
        "cuisine": "thai"
      },
      "geometry": {
        "type": "Point",
        "coordinates": [
          18.0754259,
          59.3078023
        ]
      }
    },
    {
      "type": "Feature",
      "properties": {
        "weight": 1.0,
        "id": 2498488711,
        "hasDetails": true,
        "name": "Indian Garden",
        "amenity": "restaurant",
        "cuisine": "indian",
        "website": "http://indiangarden.nu/liljeholmen/",
        "opening_hours": "Mo-Th 11:00-21:00; Sa 13:00-22:00; Fr,Su off",
        "outdoor_seating": "yes"
      },
      "geometry": {
        "type": "Point",
        "coordinates": [
          18.0286974,
          59.3079045
        ]
      }
    },
    {
      "type": "Feature",
      "properties": {
        "weight": 1.0,
        "id": 1258634232,
        "hasDetails": true,
        "name": "Koffein",
        "amenity": "cafe",
        "cuisine": "coffee_shop",
        "opening_hours": "Su 10:00-18:00; Mo-Fr 09:00-18:00"
      },
      "geometry": {
        "type": "Point",
        "coordinates": [
          18.0760528,
          59.3079371
        ]
      }
    },
    {
      "type": "Feature",
      "properties": {
        "weight": 1.0,
        "id": 1256871342,
        "hasDetails": true,
        "name": "Masala Art",
        "amenity": "fast_food",
        "opening_hours": "Mo-Th 11:00-21:00; Sa 11:00-22:00; Su 13:00-21:00",
        "outdoor_seating": "yes"
      },
      "geometry": {
        "type": "Point",
        "coordinates": [
          18.0767195,
          59.3080362
        ]
      }
    },
    {
      "type": "Feature",
      "properties": {
        "weight": 1.0,
        "id": 5221908762,
        "hasDetails": true,
        "name": "Shaka Shaka",
        "amenity": "fast_food",
        "website": "https://www.shakashaka.se/",
        "opening_hours": "Mo-Fr 11:00-20:00; Sa 11:30-18:00; Su 11:30-16:00"
      },
      "geometry": {
        "type": "Point",
        "coordinates": [
          18.0769682,
          59.308056
        ]
      }
    },
    {
      "type": "Feature",
      "properties": {
        "weight": 1.0,
        "id": 1639251879,
        "hasDetails": true,
        "name": "Eriksdalshallens Mat & Caf\u00e9",
        "amenity": "restaurant",
        "website": "https://www.eriksdalshallen.se/",
        "opening_hours": "Mo 10:00-15:00;Tu-Fr 10:00-18:00;Sa 10:00-15:00;Su off"
      },
      "geometry": {
        "type": "Point",
        "coordinates": [
          18.0650687,
          59.3081218
        ]
      }
    },
    {
      "type": "Feature",
      "properties": {
        "weight": 1.0,
        "id": 1256871215,
        "hasDetails": true,
        "name": "S\u00f6der Bar",
        "amenity": "bar",
        "opening_hours": "Mo-Su 11:00-01:00",
        "names": [
          "S\u00f6der Bar",
          "Thai Bambu"
        ],
        "amenities": [
          "bar",
          "fast_food"
        ]
      },
      "geometry": {
        "type": "Point",
        "coordinates": [
          18.0774716,
          59.3081247
        ]
      }
    },
    {
      "type": "Feature",
      "properties": {
        "weight": 1.0,
        "id": 1256871168,
        "hasDetails": true,
        "name": "Lagerbaren",
        "amenity": "restaurant",
        "website": "http://www.lagerbaren.se",
        "opening_hours": "Mo-Su 11:00-01:00"
      },
      "geometry": {
        "type": "Point",
        "coordinates": [
          18.076666,
          59.3081252
        ]
      }
    },
    {
      "type": "Feature",
      "properties": {
        "weight": 1.0,
        "id": 5262025993,
        "hasDetails": true,
        "name": "Tant Maja och Fr\u00f6ken Emilia",
        "amenity": "cafe",
        "outdoor_seating": "yes"
      },
      "geometry": {
        "type": "Point",
        "coordinates": [
          18.0272421,
          59.3081333
        ]
      }
    },
    {
      "type": "Feature",
      "properties": {
        "weight": 1.0,
        "id": 5838645306,
        "hasDetails": true,
        "name": "Falloumi",
        "amenity": "restaurant",
        "cuisine": "lebanese",
        "address": "Ringv\u00e4gen 127",
        "website": "https://falloumi.se/",
        "opening_hours": "Mo-Fr 11:00-21:00; Sa-Su 12:00-21:00",
        "outdoor_seating": "yes"
      },
      "geometry": {
        "type": "Point",
        "coordinates": [
          18.0777122,
          59.3081558
        ]
      }
    },
    {
      "type": "Feature",
      "properties": {
        "weight": 1.0,
        "id": 2021350054,
        "hasDetails": true,
        "name": "DIN-DIN Club",
        "amenity": "restaurant",
        "cuisine": "asian",
        "website": "https://www.dindinclub.se/din-din-club-meny-liljeholmen",
        "opening_hours": "Mo-Fr 11:00-21:00; Sa-Su 12:00-21:00",
        "outdoor_seating": "yes"
      },
      "geometry": {
        "type": "Point",
        "coordinates": [
          18.0291693,
          59.3081563
        ]
      }
    },
    {
      "type": "Feature",
      "properties": {
        "weight": 1.0,
        "id": 1258633922,
        "hasDetails": true,
        "name": "91:an",
        "amenity": "restaurant",
        "opening_hours": "Mo-Th 10:00-23:00, Fr 10:00-24:00, Su 12:00-23:00, Sa 12:00-24:00",
        "outdoor_seating": "yes"
      },
      "geometry": {
        "type": "Point",
        "coordinates": [
          18.0675037,
          59.3081696
        ]
      }
    },
    {
      "type": "Feature",
      "properties": {
        "weight": 1.0,
        "id": 3712268503,
        "hasDetails": true,
        "name": "Kajsas p\u00e5 kajen",
        "amenity": "cafe",
        "website": "https://kajsas.se/pa-kajen/",
        "opening_hours": "Mo-Sa 07:30-20:00; Su 07:30-19:30",
        "outdoor_seating": "yes"
      },
      "geometry": {
        "type": "Point",
        "coordinates": [
          18.0972331,
          59.3081998
        ]
      }
    },
    {
      "type": "Feature",
      "properties": {
        "weight": 1.0,
        "id": 9124498511,
        "hasDetails": true,
        "name": "Suris Street Food",
        "amenity": "restaurant",
        "cuisine": "sandwich;regional",
        "website": "https://surisstreetfood.se",
        "opening_hours": "Mo-Sa 11:00-20:00; Su 12:00-18:00"
      },
      "geometry": {
        "type": "Point",
        "coordinates": [
          18.078105,
          59.3082043
        ]
      }
    },
    {
      "type": "Feature",
      "properties": {
        "weight": 1.0,
        "id": 5249082477,
        "hasDetails": true,
        "name": "Let's Eat Sushi",
        "amenity": "restaurant",
        "cuisine": "sushi",
        "website": "https://qopla.com/restaurant/lets-eat-sushi/qvyqQMedAp/home"
      },
      "geometry": {
        "type": "Point",
        "coordinates": [
          18.0270286,
          59.3082152
        ]
      }
    },
    {
      "type": "Feature",
      "properties": {
        "weight": 1.0,
        "id": 3583936511,
        "hasDetails": true,
        "name": "Crispy",
        "amenity": "fast_food",
        "cuisine": "pizza",
        "opening_hours": "Mo-Fr 16:00-21:30; Sa 12:00-21:30; Su 12:00-20:30",
        "outdoor_seating": "yes"
      },
      "geometry": {
        "type": "Point",
        "coordinates": [
          18.0783307,
          59.3082345
        ]
      }
    },
    {
      "type": "Feature",
      "properties": {
        "weight": 1.0,
        "id": 1256871258,
        "hasDetails": true,
        "name": "Lilla Caf\u00e9t p\u00e5 S\u00f6der",
        "amenity": "cafe",
        "website": "https://lillacafeetpasoder.se",
        "opening_hours": "Mo-Th 08:00-17:00; Fr 08:00-18:00; Sa-Su 09:00-17:00"
      },
      "geometry": {
        "type": "Point",
        "coordinates": [
          18.0788077,
          59.3083111
        ]
      }
    },
    {
      "type": "Feature",
      "properties": {
        "weight": 1.0,
        "id": 2038190081,
        "hasDetails": true,
        "name": "German Beer Hall Liljeholmen",
        "amenity": "restaurant",
        "cuisine": "german",
        "website": "https://germanbeerhall.se",
        "outdoor_seating": "yes"
      },
      "geometry": {
        "type": "Point",
        "coordinates": [
          18.0296139,
          59.3083331
        ]
      }
    },
    {
      "type": "Feature",
      "properties": {
        "weight": 1.0,
        "id": 2956920963,
        "hasDetails": true,
        "name": "Beirut food by natt",
        "amenity": "restaurant",
        "cuisine": "lebanese",
        "website": "https://www.beirutfoodbynatt.se/",
        "opening_hours": "Mo-Th 17:30-23:00; Fr-Sa 17:00-01:00; Su 17:00-00:00"
      },
      "geometry": {
        "type": "Point",
        "coordinates": [
          18.1031949,
          59.3083531
        ]
      }
    },
    {
      "type": "Feature",
      "properties": {
        "weight": 1.0,
        "id": 1258634310,
        "hasDetails": true,
        "name": "The Holy Cow",
        "amenity": "restaurant",
        "cuisine": "indian",
        "website": "https://www.theholycow.se/",
        "opening_hours": "Mo-Fr 11:00-22:00; Sa-Su 13:00-22:00"
      },
      "geometry": {
        "type": "Point",
        "coordinates": [
          18.0663432,
          59.3083948
        ]
      }
    },
    {
      "type": "Feature",
      "properties": {
        "weight": 1.0,
        "id": 11603414436,
        "hasDetails": true,
        "name": "Indian Street Food & Co",
        "amenity": "restaurant",
        "cuisine": "indian;south_indian",
        "website": "https://www.indianstreetfood.com",
        "opening_hours": "Mo-Th 11:00-21:00; Fr-Sa 11:00-22:00; Su 11:00-20:00",
        "names": [
          "Indian Street Food & Co",
          "The Fishery"
        ],
        "amenities": [
          "restaurant",
          "fast_food"
        ]
      },
      "geometry": {
        "type": "Point",
        "coordinates": [
          18.0750115,
          59.3083974
        ]
      }
    },
    {
      "type": "Feature",
      "properties": {
        "weight": 1.0,
        "id": 1258634101,
        "hasDetails": true,
        "name": "Restaurang Triton",
        "amenity": "restaurant",
        "website": "https://www.triton.restaurant/",
        "opening_hours": "Tu-Sa 17:00-23:00"
      },
      "geometry": {
        "type": "Point",
        "coordinates": [
          18.0661088,
          59.3084472
        ]
      }
    },
    {
      "type": "Feature",
      "properties": {
        "weight": 1.0,
        "id": 1659654402,
        "hasDetails": true,
        "name": "Rackarbacken",
        "amenity": "restaurant",
        "opening_hours": "Sa,Su off; Mo-Fr 08:30-15:30"
      },
      "geometry": {
        "type": "Point",
        "coordinates": [
          18.0588342,
          59.3084474
        ]
      }
    },
    {
      "type": "Feature",
      "properties": {
        "weight": 1.0,
        "id": 5812399575,
        "hasDetails": true,
        "name": "N\u016b",
        "amenity": "fast_food",
        "website": "https://www.nusthlm.com",
        "opening_hours": "Mo-Th 11:00-21:00; Fr-Sa 11:00-22:00; Su 11:00-20:00"
      },
      "geometry": {
        "type": "Point",
        "coordinates": [
          18.075155,
          59.308509
        ]
      }
    },
    {
      "type": "Feature",
      "properties": {
        "weight": 1.0
      },
      "geometry": {
        "type": "Point",
        "coordinates": [
          18.1033604,
          59.3085664
        ]
      }
    },
    {
      "type": "Feature",
      "properties": {
        "weight": 1.0,
        "id": 1696343125,
        "hasDetails": true,
        "name": "Bryggans k\u00f6k & bar",
        "amenity": "restaurant",
        "website": "https://www.brygganskok.se/",
        "opening_hours": "Su, Tu-Th 16:00-22:00; Fr-Sa 16:00-23:00",
        "outdoor_seating": "yes"
      },
      "geometry": {
        "type": "Point",
        "coordinates": [
          18.0973318,
          59.3086128
        ]
      }
    },
    {
      "type": "Feature",
      "properties": {
        "weight": 1.0,
        "id": 1256870998,
        "hasDetails": true,
        "name": "Grillringen",
        "amenity": "fast_food",
        "cuisine": "grill",
        "outdoor_seating": "terrace"
      },
      "geometry": {
        "type": "Point",
        "coordinates": [
          18.0814201,
          59.3086862
        ]
      }
    },
    {
      "type": "Feature",
      "properties": {
        "weight": 1.0,
        "id": 11700560766,
        "hasDetails": true,
        "name": "Duvan",
        "amenity": "restaurant",
        "website": "https://duvanpub.se/",
        "opening_hours": "Mo closed; Tu-Sa 17:00-24:00; Su 17:00-22:00"
      },
      "geometry": {
        "type": "Point",
        "coordinates": [
          18.0830857,
          59.3087078
        ]
      }
    },
    {
      "type": "Feature",
      "properties": {
        "weight": 1.0,
        "id": 1256871409,
        "hasDetails": true,
        "name": "Br\u00f6d & Salt",
        "amenity": "cafe",
        "website": "https://brodsalt.se",
        "opening_hours": "Mo-Fr 07:00-19:00; Sa-Su 08:00-19:00",
        "names": [
          "Br\u00f6d & Salt",
          "Gyrella"
        ],
        "amenities": [
          "cafe",
          "fast_food"
        ]
      },
      "geometry": {
        "type": "Point",
        "coordinates": [
          18.0763961,
          59.3087284
        ]
      }
    },
    {
      "type": "Feature",
      "properties": {
        "weight": 1.0,
        "id": 11603414435,
        "hasDetails": true,
        "name": "Uncle Phil's",
        "amenity": "restaurant",
        "cuisine": "american;fast_food;sandwich"
      },
      "geometry": {
        "type": "Point",
        "coordinates": [
          18.0765857,
          59.3087605
        ]
      }
    },
    {
      "type": "Feature",
      "properties": {
        "weight": 1.0,
        "id": 703480109,
        "hasDetails": true,
        "name": "Sono",
        "amenity": "restaurant",
        "cuisine": "sushi",
        "website": "https://www.sono.nu/",
        "opening_hours": "Mo-Fr 11:00-21:00;Sa-Su 12:00-21:00"
      },
      "geometry": {
        "type": "Point",
        "coordinates": [
          18.0783041,
          59.3087742
        ]
      }
    },
    {
      "type": "Feature",
      "properties": {
        "weight": 1.0,
        "id": 1657737775,
        "hasDetails": true,
        "name": "Elie's",
        "amenity": "restaurant",
        "cuisine": "lebanese",
        "website": "https://elies.se/",
        "opening_hours": "Mo closed; Tu-Th 17:00-22:00; Fr-Sa 17:00-23:00; Su closed"
      },
      "geometry": {
        "type": "Point",
        "coordinates": [
          18.0888727,
          59.3087871
        ]
      }
    },
    {
      "type": "Feature",
      "properties": {
        "weight": 1.0,
        "id": 1256871297,
        "hasDetails": true,
        "name": "Penguin",
        "amenity": "fast_food",
        "cuisine": "pizza",
        "website": "https://pizzeriapenguin.se/",
        "opening_hours": "Mo-Fr 10:30-21:00; Sa-Su 11:00-21:00"
      },
      "geometry": {
        "type": "Point",
        "coordinates": [
          18.076798,
          59.3087873
        ]
      }
    },
    {
      "type": "Feature",
      "properties": {
        "weight": 1.0,
        "id": 1258633968,
        "hasDetails": true,
        "name": "Verona",
        "amenity": "restaurant",
        "cuisine": "pizza;pasta;beef",
        "opening_hours": "Mo-Fr 10:00-22:00; Sa-Su 11:00-22:00",
        "names": [
          "Verona",
          "Isaki"
        ],
        "amenities": [
          "restaurant",
          "fast_food"
        ]
      },
      "geometry": {
        "type": "Point",
        "coordinates": [
          18.0647982,
          59.3087901
        ]
      }
    },
    {
      "type": "Feature",
      "properties": {
        "weight": 1.0,
        "id": 1740704814,
        "hasDetails": true,
        "name": "Bakarna",
        "amenity": "cafe",
        "outdoor_seating": "yes"
      },
      "geometry": {
        "type": "Point",
        "coordinates": [
          18.1035414,
          59.3087942
        ]
      }
    },
    {
      "type": "Feature",
      "properties": {
        "weight": 1.0,
        "id": 13372690224,
        "hasDetails": true,
        "name": "OSO Omakase",
        "amenity": "fast_food",
        "cuisine": "japanese;sushi",
        "website": "https://osomakase.com",
        "opening_hours": "Tu-Th 17:30-23:30; Fr-Su 17:00-24:00"
      },
      "geometry": {
        "type": "Point",
        "coordinates": [
          18.0772145,
          59.3088395
        ]
      }
    },
    {
      "type": "Feature",
      "properties": {
        "weight": 1.0,
        "id": 1639251918,
        "hasDetails": true,
        "name": "Parma",
        "amenity": "fast_food",
        "cuisine": "pizza",
        "website": "https://www.kvartersmenyguiden.se",
        "opening_hours": "Mo-Fr 10:00-21:00; Sa,Su 12:00-21:00"
      },
      "geometry": {
        "type": "Point",
        "coordinates": [
          18.0627452,
          59.3088631
        ]
      }
    },
    {
      "type": "Feature",
      "properties": {
        "weight": 1.0,
        "id": 8948933139,
        "hasDetails": true,
        "name": "Reggev Hummus S\u00f6der",
        "amenity": "restaurant",
        "cuisine": "grill;kebab;lebanese",
        "website": "https://www.reggevhummus.se/",
        "opening_hours": "We-Th 11:00-15:00; Fr-Su 11:00-16:00",
        "names": [
          "Reggev Hummus S\u00f6der",
          "Klow"
        ],
        "amenities": [
          "restaurant",
          "bar"
        ]
      },
      "geometry": {
        "type": "Point",
        "coordinates": [
          18.0820315,
          59.3089673
        ]
      }
    },
    {
      "type": "Feature",
      "properties": {
        "weight": 1.0
      },
      "geometry": {
        "type": "Point",
        "coordinates": [
          18.0822566,
          59.3090081
        ]
      }
    },
    {
      "type": "Feature",
      "properties": {
        "weight": 1.0,
        "id": 1740704828,
        "hasDetails": true,
        "name": "Indian Street Food & Co",
        "amenity": "restaurant",
        "cuisine": "indian",
        "website": "http://www.indianstreetfood.se/"
      },
      "geometry": {
        "type": "Point",
        "coordinates": [
          18.103744,
          59.3090557
        ]
      }
    },
    {
      "type": "Feature",
      "properties": {
        "weight": 1.0,
        "id": 1255629574,
        "hasDetails": true,
        "name": "Sakae",
        "amenity": "fast_food",
        "cuisine": "sushi",
        "opening_hours": "Mo-Fr 11:00-20:30; Sa,Su 12:00-20:30"
      },
      "geometry": {
        "type": "Point",
        "coordinates": [
          18.0620901,
          59.3090645
        ]
      }
    },
    {
      "type": "Feature",
      "properties": {
        "weight": 1.0,
        "id": 751969559,
        "hasDetails": true,
        "name": "Blecktornsk\u00e4llaren",
        "amenity": "restaurant",
        "website": "https://blecktornskallaren.se",
        "opening_hours": "Mo-Th 09:00-24:00;Fr 09:00-01:00;Sa 11:00-01:00;Su 11:00-24:00"
      },
      "geometry": {
        "type": "Point",
        "coordinates": [
          18.0825047,
          59.3090695
        ]
      }
    },
    {
      "type": "Feature",
      "properties": {
        "weight": 1.0,
        "id": 1348515103,
        "hasDetails": true,
        "name": "McDonald's",
        "amenity": "fast_food",
        "cuisine": "burger",
        "website": "https://www.mcdonalds.com/se/sv-se/location/stockholm/g-tgatan/g-tgatan-91/4.html",
        "opening_hours": "Mo-Tu 10:00-24:00, We-Th 10:00-01:00, Fr-Sa 10:00-04:00; Su 10:00-24:00"
      },
      "geometry": {
        "type": "Point",
        "coordinates": [
          18.0762137,
          59.309096
        ]
      }
    },
    {
      "type": "Feature",
      "properties": {
        "weight": 1.0,
        "id": 1255629391,
        "hasDetails": true,
        "name": "Biscuit",
        "amenity": "cafe",
        "website": "https://www.biscuitkonditoriet.se/",
        "opening_hours": "Mo-Fr 07:00-17:00; Sa 09:00-16:00; Su 09:00-15:00"
      },
      "geometry": {
        "type": "Point",
        "coordinates": [
          18.0619382,
          59.3091108
        ]
      }
    },
    {
      "type": "Feature",
      "properties": {
        "weight": 1.0,
        "id": 1350452939,
        "hasDetails": true,
        "name": "Caf\u00e9 H\u00f6rnan",
        "amenity": "cafe",
        "cuisine": "coffee_shop",
        "website": "https://www.cafehornan.nu/"
      },
      "geometry": {
        "type": "Point",
        "coordinates": [
          18.0828707,
          59.3091927
        ]
      }
    },
    {
      "type": "Feature",
      "properties": {
        "weight": 1.0,
        "id": 3652358040,
        "hasDetails": true,
        "name": "Bleck",
        "amenity": "restaurant",
        "website": "https://restaurangbleck.se/",
        "opening_hours": "Mo-We 11:30-23:00;Th-Sa 11:30-01:00;Su 11:30-23:00",
        "outdoor_seating": "veranda"
      },
      "geometry": {
        "type": "Point",
        "coordinates": [
          18.086388,
          59.3092794
        ]
      }
    },
    {
      "type": "Feature",
      "properties": {
        "weight": 1.0,
        "id": 1541177345,
        "hasDetails": true,
        "name": "Bliss Cafe",
        "amenity": "cafe",
        "cuisine": "raw_food",
        "website": "https://blisscafe.se/",
        "opening_hours": "Sa 12:00-16:00"
      },
      "geometry": {
        "type": "Point",
        "coordinates": [
          18.0792728,
          59.3093356
        ]
      }
    },
    {
      "type": "Feature",
      "properties": {
        "weight": 1.0,
        "id": 11023193333,
        "hasDetails": true,
        "name": "Falafelbaren",
        "amenity": "restaurant",
        "cuisine": "falafel",
        "website": "https://www.falafelbaren.se/",
        "opening_hours": "Mo-Fr 11:00-19:00; Sa 11:00-16:00"
      },
      "geometry": {
        "type": "Point",
        "coordinates": [
          18.0754294,
          59.3093522
        ]
      }
    },
    {
      "type": "Feature",
      "properties": {
        "weight": 1.0,
        "id": 1350452915,
        "hasDetails": true,
        "name": "Elefantpojken",
        "amenity": "restaurant",
        "website": "https://www.elefantpojken.com",
        "opening_hours": "Mo-Fr 11:00-14:00,16:00+; Sa 15:00+; Su 15:00-22:00"
      },
      "geometry": {
        "type": "Point",
        "coordinates": [
          18.0836836,
          59.3094269
        ]
      }
    },
    {
      "type": "Feature",
      "properties": {
        "weight": 1.0,
        "id": 5383026148,
        "hasDetails": true,
        "name": "Bistro Kajen",
        "amenity": "restaurant",
        "address": "Jan Inghes Torg 52"
      },
      "geometry": {
        "type": "Point",
        "coordinates": [
          18.1017673,
          59.3094469
        ]
      }
    },
    {
      "type": "Feature",
      "properties": {
        "weight": 1.0,
        "id": 1600236865,
        "hasDetails": true,
        "name": "Polhem",
        "amenity": "pub",
        "opening_hours": "Mo-Fr 15:00-01:00;Sa-Su 12:00-01:00"
      },
      "geometry": {
        "type": "Point",
        "coordinates": [
          18.0838847,
          59.3094967
        ]
      }
    },
    {
      "type": "Feature",
      "properties": {
        "weight": 1.0
      },
      "geometry": {
        "type": "Point",
        "coordinates": [
          18.0283179,
          59.3095015
        ]
      }
    },
    {
      "type": "Feature",
      "properties": {
        "weight": 1.0,
        "id": 1657737901,
        "hasDetails": true,
        "name": "Mullh\u00f6nan",
        "amenity": "cafe",
        "opening_hours": "Mo-Fr 11:00-15:00"
      },
      "geometry": {
        "type": "Point",
        "coordinates": [
          18.0870303,
          59.3095147
        ]
      }
    },
    {
      "type": "Feature",
      "properties": {
        "weight": 1.0,
        "id": 751969589,
        "hasDetails": true,
        "name": "Mae Thai",
        "amenity": "fast_food",
        "cuisine": "thai",
        "website": "https://maethaiwok.se/restauranger/mae-thai-wok-skanstull/",
        "opening_hours": "Mo-Fr 11:00-21:00; Sa-Su 12:00-21:00"
      },
      "geometry": {
        "type": "Point",
        "coordinates": [
          18.0760917,
          59.3095194
        ]
      }
    },
    {
      "type": "Feature",
      "properties": {
        "weight": 1.0,
        "id": 617295689,
        "hasDetails": true,
        "name": "Pizzeria Svea",
        "amenity": "fast_food",
        "cuisine": "pizza"
      },
      "geometry": {
        "type": "Point",
        "coordinates": [
          18.0840823,
          59.3095519
        ]
      }
    },
    {
      "type": "Feature",
      "properties": {
        "weight": 1.0
      },
      "geometry": {
        "type": "Point",
        "coordinates": [
          18.0220841,
          59.309555
        ]
      }
    },
    {
      "type": "Feature",
      "properties": {
        "weight": 1.0
      },
      "geometry": {
        "type": "Point",
        "coordinates": [
          18.030495,
          59.3096235
        ]
      }
    },
    {
      "type": "Feature",
      "properties": {
        "weight": 1.0,
        "id": 9049036527,
        "hasDetails": true,
        "name": "Bastard Burgers",
        "amenity": "restaurant",
        "cuisine": "burger",
        "address": "Liljeholmstorget 5",
        "website": "https://bastardburgers.com/se/restaurants/liljeholmen/",
        "opening_hours": "Mo-Th,Su 11:00-21:00; Fr-Sa 11:00-22:00"
      },
      "geometry": {
        "type": "Point",
        "coordinates": [
          18.0224993,
          59.309643
        ]
      }
    },
    {
      "type": "Feature",
      "properties": {
        "weight": 1.0,
        "id": 13369836534,
        "hasDetails": true,
        "name": "Bar Nacka",
        "amenity": "bar",
        "website": "https://barnacka.se",
        "opening_hours": "We-Fr 17:00-23:00; Sa 13:00-23:00"
      },
      "geometry": {
        "type": "Point",
        "coordinates": [
          18.0826005,
          59.3096735
        ]
      }
    },
    {
      "type": "Feature",
      "properties": {
        "weight": 1.0,
        "id": 1806455621,
        "hasDetails": true,
        "name": "Pong",
        "amenity": "restaurant",
        "website": "https://ponghenriksdal.se/",
        "opening_hours": "Su 12:00-22:00; Mo-Th 10:30-22:00; Fr 10:30-23:00; Sa 11:00-23:00"
      },
      "geometry": {
        "type": "Point",
        "coordinates": [
          18.1019218,
          59.3096923
        ]
      }
    },
    {
      "type": "Feature",
      "properties": {
        "weight": 1.0
      },
      "geometry": {
        "type": "Point",
        "coordinates": [
          18.0671746,
          59.3097089
        ]
      }
    },
    {
      "type": "Feature",
      "properties": {
        "weight": 1.0
      },
      "geometry": {
        "type": "Point",
        "coordinates": [
          18.022769,
          59.3097263
        ]
      }
    },
    {
      "type": "Feature",
      "properties": {
        "weight": 1.0,
        "id": 1161921167,
        "hasDetails": true,
        "name": "KFC",
        "amenity": "fast_food",
        "cuisine": "chicken",
        "website": "https://kfc.nu/vaara-restauranger/kfc-liljeholmen/",
        "opening_hours": "Mo-Su 10:00-24:00"
      },
      "geometry": {
        "type": "Point",
        "coordinates": [
          18.0221382,
          59.3097444
        ]
      }
    },
    {
      "type": "Feature",
      "properties": {
        "weight": 1.0,
        "id": 12040166189,
        "hasDetails": true,
        "name": "Il Nostro",
        "amenity": "restaurant",
        "cuisine": "italian",
        "website": "https://ilnostro.nu",
        "opening_hours": "Mo-Fr 09:30-23:00; Sa-Su 08:00-00:30"
      },
      "geometry": {
        "type": "Point",
        "coordinates": [
          18.0978506,
          59.3097454
        ]
      }
    },
    {
      "type": "Feature",
      "properties": {
        "weight": 1.0
      },
      "geometry": {
        "type": "Point",
        "coordinates": [
          18.0617378,
          59.3097476
        ]
      }
    },
    {
      "type": "Feature",
      "properties": {
        "weight": 1.0,
        "id": 1616041454,
        "hasDetails": true,
        "name": "Roots & Soil",
        "amenity": "restaurant",
        "website": "https://www.roots-soil.se/start-marievik/",
        "opening_hours": "Mo-Fr 06:30-15:00"
      },
      "geometry": {
        "type": "Point",
        "coordinates": [
          18.028177,
          59.3097676
        ]
      }
    },
    {
      "type": "Feature",
      "properties": {
        "weight": 1.0
      },
      "geometry": {
        "type": "Point",
        "coordinates": [
          18.0797836,
          59.3097989
        ]
      }
    },
    {
      "type": "Feature",
      "properties": {
        "weight": 1.0,
        "id": 751969494,
        "hasDetails": true,
        "name": "Holy cow",
        "amenity": "restaurant",
        "opening_hours": "Mo-Fr 11:00-22:00; Sa,Su 13:00-22:00"
      },
      "geometry": {
        "type": "Point",
        "coordinates": [
          18.0825443,
          59.3097995
        ]
      }
    },
    {
      "type": "Feature",
      "properties": {
        "weight": 1.0,
        "id": 552514120,
        "hasDetails": true,
        "name": "Brother Tuck",
        "amenity": "pub",
        "website": "https://brothertuck.se",
        "opening_hours": "Mo-Tu 14:00-24:00; We-Th 14:00-01:00; Fr 14:00-03:00; Sa 12:00-03:00; Su 12:00-24:00",
        "outdoor_seating": "yes"
      },
      "geometry": {
        "type": "Point",
        "coordinates": [
          18.0758442,
          59.3098213
        ]
      }
    },
    {
      "type": "Feature",
      "properties": {
        "weight": 1.0,
        "id": 1350452935,
        "hasDetails": true,
        "name": "Ring Katarina",
        "amenity": "restaurant",
        "website": "https://ringkatarina.se",
        "opening_hours": "Mo-Th 17:00-23:00; Fr,Sa 17:00-24:00"
      },
      "geometry": {
        "type": "Point",
        "coordinates": [
          18.0850487,
          59.3098592
        ]
      }
    },
    {
      "type": "Feature",
      "properties": {
        "weight": 1.0,
        "id": 751969511,
        "hasDetails": true,
        "name": "Eurobar Caf\u00e9",
        "amenity": "cafe",
        "cuisine": "russian;ukrainian",
        "address": "\u00d6stg\u00f6tagatan 73A",
        "opening_hours": "Tu-Th 15:00-21:00; Fr 15:00-22:00; Sa 11:00-22:00; Su 11:00-16:00; Mo off",
        "outdoor_seating": "yes"
      },
      "geometry": {
        "type": "Point",
        "coordinates": [
          18.0790339,
          59.3098803
        ]
      }
    },
    {
      "type": "Feature",
      "properties": {
        "weight": 1.0,
        "id": 9956343955,
        "hasDetails": true,
        "name": "Pl\u00e5tparken",
        "amenity": "bar",
        "website": "https://www.platparken.se/",
        "opening_hours": "Mo-Su 12:00-24:00",
        "outdoor_seating": "yes"
      },
      "geometry": {
        "type": "Point",
        "coordinates": [
          18.0310407,
          59.3098837
        ]
      }
    },
    {
      "type": "Feature",
      "properties": {
        "weight": 1.0,
        "id": 3601164234,
        "hasDetails": true,
        "name": "Hallen S\u00f6dermalm",
        "amenity": "bar",
        "website": "https://www.hallen.one",
        "opening_hours": "Mo-Th 15:00-01:00; Fr-Su 11:00-01:00"
      },
      "geometry": {
        "type": "Point",
        "coordinates": [
          18.0757857,
          59.3099249
        ]
      }
    },
    {
      "type": "Feature",
      "properties": {
        "weight": 1.0,
        "id": 1258633751,
        "hasDetails": true,
        "name": "Heat",
        "amenity": "restaurant",
        "opening_hours": "Mo-Fr 09:00-14:00"
      },
      "geometry": {
        "type": "Point",
        "coordinates": [
          18.0592319,
          59.3100011
        ]
      }
    },
    {
      "type": "Feature",
      "properties": {
        "weight": 1.0,
        "id": 751969502,
        "hasDetails": true,
        "name": "Kamarina",
        "amenity": "restaurant",
        "cuisine": "greek",
        "website": "https://www.kamarina.se/",
        "opening_hours": "Mo-Fr 16:00-24:00; Sa 13:00-24:00; Su 13:00-23:00"
      },
      "geometry": {
        "type": "Point",
        "coordinates": [
          18.0785019,
          59.3100363
        ]
      }
    },
    {
      "type": "Feature",
      "properties": {
        "weight": 1.0,
        "id": 599082265,
        "hasDetails": true,
        "name": "Caf\u00e9 Brygghuset",
        "amenity": "cafe",
        "address": "Svindersviksv\u00e4gen 15",
        "opening_hours": "Mo-Su 11:00-17:00",
        "outdoor_seating": "yes"
      },
      "geometry": {
        "type": "Point",
        "coordinates": [
          18.1287432,
          59.3100884
        ]
      }
    },