{
  "type": "FeatureCollection",
  "features": [
    {
      "type": "Feature",
      "properties": {
        "weight": 1.0,
        "id": 294348675,
        "hasDetails": true,
        "name": "Centre C\u00edvic Sant Jordi - Ribera Baixa",
        "amenity": "arts_centre",
        "address": "Carrer de Dolores Ib\u00e1rruri 45 - 47, el Prat de Llobregat",
        "website": "https://www.elprat.cat/cultura/centre-civic-sant-jordi-ribera-baixa"
      },
      "geometry": {
        "type": "Point",
        "coordinates": [
          2.0863613,
          41.3199941
        ]
      }
    },
    {
      "type": "Feature",
      "properties": {
        "weight": 1.0,
        "id": 294184829,
        "hasDetails": true,
        "name": "Cinema Capri",
        "amenity": "cinema",
        "address": "Avinguda de la Verge de Montserrat 111, el Prat de Llobregat",
        "website": "https://www.cinecaprielprat.com/"
      },
      "geometry": {
        "type": "Point",
        "coordinates": [
          2.0953769,
          41.3256381
        ]
      }
    },
    {
      "type": "Feature",
      "properties": {
        "weight": 1.0,
        "id": 294836758,
        "hasDetails": true,
        "name": "Centre Cultural Torre Balcells",
        "amenity": "arts_centre",
        "address": "Pla\u00e7a de Pau Casals 2, el Prat de Llobregat",
        "wikidata": "Q11952231",
        "wikipedia": "ca:Torre Balcells"
      },
      "geometry": {
        "type": "Point",
        "coordinates": [
          2.09383,
          41.3261795
        ]
      }
    },
    {
      "type": "Feature",
      "properties": {
        "weight": 1.0,
        "id": 274941235,
        "hasDetails": true,
        "name": "Torre Muntadas",
        "amenity": "arts_centre",
        "address": "Carrer de Jaume Casanovas 80, el Prat de Llobregat",
        "website": "https://teatrekaddish.org/",
        "wikidata": "Q11952255",
        "wikipedia": "ca:Torre Muntadas"
      },
      "geometry": {
        "type": "Point",
        "coordinates": [
          2.0924487,
          41.3277663
        ]
      }
    },
    {
      "type": "Feature",
      "properties": {
        "weight": 1.0,
        "id": 295212126,
        "hasDetails": true,
        "name": "Espai Fundaci\u00f3 \"la Caixa\" el Prat",
        "amenity": "arts_centre",
        "address": "Passatge del Rector Mart\u00ed i Pi\u00f1ol 13, el Prat de Llobregat"
      },
      "geometry": {
        "type": "Point",
        "coordinates": [
          2.0943716,
          41.3292891
        ]
      }
    },
    {
      "type": "Feature",
      "properties": {
        "weight": 1.0,
        "id": 295212130,
        "hasDetails": true,
        "name": "Teatre l'Artes\u00e0",
        "amenity": "theatre",
        "address": "Carrer del Centre 33, el Prat de Llobregat",
        "website": "https://www.teatrelartesa.cat/"
      },
      "geometry": {
        "type": "Point",
        "coordinates": [
          2.0953091,
          41.3297891
        ]
      }
    },
    {
      "type": "Feature",
      "properties": {
        "weight": 1.0,
        "id": 293976208,
        "hasDetails": true,
        "name": "La Capsa",
        "amenity": "arts_centre",
        "address": "Avinguda del Pare Andreu de Palma 5, el Prat de Llobregat",
        "website": "https://lacapsa.org/"
      },
      "geometry": {
        "type": "Point",
        "coordinates": [
          2.1032551,
          41.3299677
        ]
      }
    },
    {
      "type": "Feature",
      "properties": {
        "weight": 1.0,
        "id": 295086236,
        "hasDetails": true,
        "name": "Teatre Modern",
        "amenity": "theatre",
        "address": "Pla\u00e7a de la Vila 5-6, el Prat de Llobregat",
        "website": "https://www.teatrelartesa.cat/teatre-lartesa/el-modern",
        "wikidata": "Q11951014",
        "wikipedia": "ca:Teatre Modern (el Prat de Llobregat)"
      },
      "geometry": {
        "type": "Point",
        "coordinates": [
          2.0927162,
          41.3303302
        ]
      }
    },
    {
      "type": "Feature",
      "properties": {
        "weight": 1.0,
        "id": 1526558016,
        "hasDetails": true,
        "name": "Kin\u00e9polis",
        "amenity": "cinema",
        "opening_hours": "Mo-Su 10:30-01:00"
      },
      "geometry": {
        "type": "Point",
        "coordinates": [
          2.0790669,
          41.347224
        ]
      }
    },
    {
      "type": "Feature",
      "properties": {
        "weight": 1.0,
        "id": 1257775672,
        "hasDetails": true,
        "name": "Auditori de Cornell\u00e0",
        "amenity": "theatre",
        "address": "Carrer d'Albert Einstein 51, Cornell\u00e0 de Llobregat",
        "website": "https://www.auditoricornella.com/",
        "wikidata": "Q124742038"
      },
      "geometry": {
        "type": "Point",
        "coordinates": [
          2.0816905,
          41.3494456
        ]
      }
    },
    {
      "type": "Feature",
      "properties": {
        "weight": 1.0,
        "id": 1110223671,
        "hasDetails": true,
        "name": "Malalts de Festa",
        "amenity": "nightclub",
        "address": "Carrer del Coure 9, Cornell\u00e0 de Llobregat"
      },
      "geometry": {
        "type": "Point",
        "coordinates": [
          2.0946111,
          41.3555056
        ]
      }
    },
    {
      "type": "Feature",
      "properties": {
        "weight": 1.0,
        "id": 11919337621,
        "hasDetails": true,
        "name": "Capitolio",
        "amenity": "nightclub",
        "address": "Carrer del Coure 79, Cornell\u00e0 de Llobregat"
      },
      "geometry": {
        "type": "Point",
        "coordinates": [
          2.0958801,
          41.355622
        ]
      }
    },
    {
      "type": "Feature",
      "properties": {
        "weight": 1.0,
        "id": 4709933970,
        "hasDetails": true,
        "name": "Filmax Gran Via",
        "amenity": "cinema",
        "address": "Avinguda de la Granvia de l'Hospitalet 75, L'Hospitalet de Llobregat"
      },
      "geometry": {
        "type": "Point",
        "coordinates": [
          2.1283735,
          41.3583166
        ]
      }
    },
    {
      "type": "Feature",
      "properties": {
        "weight": 1.0,
        "id": 1314468423,
        "hasDetails": true,
        "name": "Salamandra 1",
        "amenity": "nightclub",
        "address": "Avinguda del Carrilet 235, L'Hospitalet de Llobregat"
      },
      "geometry": {
        "type": "Point",
        "coordinates": [
          2.109424,
          41.3600758
        ]
      }
    },
    {
      "type": "Feature",
      "properties": {
        "weight": 1.0
      },
      "geometry": {
        "type": "Point",
        "coordinates": [
          2.1360605,
          41.3615504
        ]
      }
    },
    {
      "type": "Feature",
      "properties": {
        "weight": 1.0
      },
      "geometry": {
        "type": "Point",
        "coordinates": [
          2.1372293,
          41.3620967
        ]
      }
    },
    {
      "type": "Feature",
      "properties": {
        "weight": 1.0,
        "id": 1123907768,
        "hasDetails": true,
        "name": "Kf\u00e8 Ol\u00e9",
        "amenity": "nightclub",
        "address": "Carrer d'Enric Prat de la Riba 160, l'Hospitalet de Llobregat",
        "opening_hours": "Su-Th 18:30-02:30; Fr-Sa 18:30-03:00"
      },
      "geometry": {
        "type": "Point",
        "coordinates": [
          2.1076794,
          41.3621067
        ]
      }
    },
    {
      "type": "Feature",
      "properties": {
        "weight": 1.0
      },
      "geometry": {
        "type": "Point",
        "coordinates": [
          2.1006741,
          41.3626755
        ]
      }
    },
    {
      "type": "Feature",
      "properties": {
        "weight": 1.0,
        "id": 2633991615,
        "hasDetails": true,
        "name": "Teatro de los sentidos",
        "amenity": "theatre",
        "website": "http://www.teatro de los sentidos.com"
      },
      "geometry": {
        "type": "Point",
        "coordinates": [
          2.1431923,
          41.3636041
        ]
      }
    },
    {
      "type": "Feature",
      "properties": {
        "weight": 1.0
      },
      "geometry": {
        "type": "Point",
        "coordinates": [
          2.1135686,
          41.3636657
        ]
      }
    },
    {
      "type": "Feature",
      "properties": {
        "weight": 1.0
      },
      "geometry": {
        "type": "Point",
        "coordinates": [
          2.1156969,
          41.3668825
        ]
      }
    },
    {
      "type": "Feature",
      "properties": {
        "weight": 1.0,
        "id": 8846116917,
        "hasDetails": true,
        "name": "TPK centre d'art i pensament contemporani",
        "amenity": "arts_centre",
        "wikidata": "Q118382937"
      },
      "geometry": {
        "type": "Point",
        "coordinates": [
          2.1152294,
          41.3670049
        ]
      }
    },
    {
      "type": "Feature",
      "properties": {
        "weight": 1.0,
        "id": 8846116817,
        "hasDetails": true,
        "name": "Fundacio Arranz-Bravo",
        "amenity": "arts_centre",
        "wikidata": "Q3816465",
        "wikipedia": "ca:Fundaci\u00f3 Arranz-Bravo"
      },
      "geometry": {
        "type": "Point",
        "coordinates": [
          2.1154251,
          41.3671173
        ]
      }
    },
    {
      "type": "Feature",
      "properties": {
        "weight": 1.0
      },
      "geometry": {
        "type": "Point",
        "coordinates": [
          2.1550032,
          41.367643
        ]
      }
    },
    {
      "type": "Feature",
      "properties": {
        "weight": 1.0
      },
      "geometry": {
        "type": "Point",
        "coordinates": [
          2.1540546,
          41.3682179
        ]
      }
    },
    {
      "type": "Feature",
      "properties": {
        "weight": 1.0,
        "id": 217364695,
        "hasDetails": true,
        "name": "Sala Upload",
        "amenity": "theatre",
        "address": "Avinguda de Francesc Ferrer i Gu\u00e0rdia 13"
      },
      "geometry": {
        "type": "Point",
        "coordinates": [
          2.1470906,
          41.3683093
        ]
      }
    },
    {
      "type": "Feature",
      "properties": {
        "weight": 1.0
      },
      "geometry": {
        "type": "Point",
        "coordinates": [
          2.1539814,
          41.368359
        ]
      }
    },
    {
      "type": "Feature",
      "properties": {
        "weight": 1.0,
        "id": 7042784186,
        "hasDetails": true,
        "name": "Matin\u00e9e Barcelona Events",
        "amenity": "nightclub",
        "address": "Av. Francesc Ferrer i Gu\u00e0rdia 13, Barcelona",
        "website": "https://matineegroup.com/"
      },
      "geometry": {
        "type": "Point",
        "coordinates": [
          2.1468564,
          41.3688468
        ]
      }
    },
    {
      "type": "Feature",
      "properties": {
        "weight": 1.0
      },
      "geometry": {
        "type": "Point",
        "coordinates": [
          2.154362,
          41.3688793
        ]
      }
    },
    {
      "type": "Feature",
      "properties": {
        "weight": 1.0,
        "id": 5663251369,
        "hasDetails": true,
        "name": "La Terrrazza",
        "amenity": "nightclub",
        "address": "Avinguda de Francesc Ferrer i Gu\u00e0rdia",
        "website": "https://laterrrazza.com/"
      },
      "geometry": {
        "type": "Point",
        "coordinates": [
          2.149236,
          41.3689262
        ]
      }
    },
    {
      "type": "Feature",
      "properties": {
        "weight": 1.0,
        "id": 12338089797,
        "hasDetails": true,
        "name": "Auditori Can Batll\u00f3",
        "amenity": "theatre",
        "address": "Barcelona"
      },
      "geometry": {
        "type": "Point",
        "coordinates": [
          2.1372772,
          41.3691951
        ]
      }
    },
    {
      "type": "Feature",
      "properties": {
        "weight": 1.0,
        "id": 216954154,
        "hasDetails": true,
        "name": "Teatre Grec",
        "amenity": "theatre",
        "website": "http://grec.bcn.cat/",
        "wikidata": "Q2352194",
        "wikipedia": "ca:Teatre Grec"
      },
      "geometry": {
        "type": "Point",
        "coordinates": [
          2.1596582,
          41.369517
        ]
      }
    },
    {
      "type": "Feature",
      "properties": {
        "weight": 1.0
      },
      "geometry": {
        "type": "Point",
        "coordinates": [
          2.1377597,
          41.3697684
        ]
      }
    },
    {
      "type": "Feature",
      "properties": {
        "weight": 1.0,
        "id": 7455112836,
        "hasDetails": true,
        "name": "Auditori la Torrassa",
        "amenity": "theatre",
        "address": "Carrer de Santiago Ap\u00f2stol 40, l'Hospitalet de Llobregat"
      },
      "geometry": {
        "type": "Point",
        "coordinates": [
          2.1232532,
          41.3704842
        ]
      }
    },
    {
      "type": "Feature",
      "properties": {
        "weight": 1.0,
        "id": 167067587,
        "hasDetails": true,
        "name": "Teatre Lliure",
        "amenity": "theatre",
        "address": "Passeig de Santa Madrona 1",
        "website": "https://teatrelliure.com/ca",
        "wikidata": "Q2713554",
        "wikipedia": "ca:Teatre Lliure"
      },
      "geometry": {
        "type": "Point",
        "coordinates": [
          2.15714,
          41.3706436
        ]
      }
    },
    {
      "type": "Feature",
      "properties": {
        "weight": 1.0,
        "id": 217141698,
        "hasDetails": true,
        "name": "Teatre Mercat de les Flors",
        "amenity": "theatre",
        "address": "Carrer de Lleida 53",
        "website": "https://mercatflors.cat/"
      },
      "geometry": {
        "type": "Point",
        "coordinates": [
          2.1566799,
          41.3711914
        ]
      }
    },
    {
      "type": "Feature",
      "properties": {
        "weight": 1.0,
        "id": 66258205,
        "hasDetails": true,
        "name": "Barcelona Teatre Musical",
        "amenity": "theatre",
        "wikidata": "Q4889424",
        "wikipedia": "ca:Barcelona Teatre Musical"
      },
      "geometry": {
        "type": "Point",
        "coordinates": [
          2.1550185,
          41.3715547
        ]
      }
    },
    {
      "type": "Feature",
      "properties": {
        "weight": 1.0
      },
      "geometry": {
        "type": "Point",
        "coordinates": [
          2.1569306,
          41.3716143
        ]
      }
    },
    {
      "type": "Feature",
      "properties": {
        "weight": 1.0,
        "id": 1711347295,
        "hasDetails": true,
        "name": "Sala FlyHard",
        "amenity": "theatre",
        "address": "Barcelona",
        "wikidata": "Q104551147",
        "wikipedia": "ca:Sala Flyhard"
      },
      "geometry": {
        "type": "Point",
        "coordinates": [
          2.1406718,
          41.3718421
        ]
      }
    },
    {
      "type": "Feature",
      "properties": {
        "weight": 1.0,
        "id": 10316805809,
        "hasDetails": true,
        "name": "Espai Piluso",
        "amenity": "theatre",
        "address": "Carrer de Salv\u00e0 68",
        "website": "https://www.espaipiluso.com/"
      },
      "geometry": {
        "type": "Point",
        "coordinates": [
          2.1650065,
          41.3720486
        ]
      }
    },
    {
      "type": "Feature",
      "properties": {
        "weight": 1.0
      },
      "geometry": {
        "type": "Point",
        "coordinates": [
          2.1654609,
          41.3723549
        ]
      }
    },
    {
      "type": "Feature",
      "properties": {
        "weight": 1.0,
        "id": 961000741,
        "hasDetails": true,
        "name": "Teatre Joventut",
        "amenity": "theatre",
        "address": "Carrer Joventut 10, l'Hospitalet de Llobregat",
        "website": "http://www.teatrejoventut.cat",
        "wikidata": "Q11951009",
        "wikipedia": "ca:Teatre Joventut"
      },
      "geometry": {
        "type": "Point",
        "coordinates": [
          2.1177841,
          41.372552
        ]
      }
    },
    {
      "type": "Feature",
      "properties": {
        "weight": 1.0,
        "id": 9807002422,
        "hasDetails": true,
        "amenity": "nightclub",
        "address": "Barcelona"
      },
      "geometry": {
        "type": "Point",
        "coordinates": [
          2.1420577,
          41.3726526
        ]
      }
    },
    {
      "type": "Feature",
      "properties": {
        "weight": 1.0,
        "id": 2294792948,
        "hasDetails": true,
        "name": "Telenoika",
        "amenity": "arts_centre",
        "address": "Carrer de Magalhaes 54, Barcelona",
        "website": "https://telenoika.net/",
        "wikidata": "Q11951112",
        "wikipedia": "ca:Telenoika"
      },
      "geometry": {
        "type": "Point",
        "coordinates": [
          2.1611421,
          41.3726656
        ]
      }
    },
    {
      "type": "Feature",
      "properties": {
        "weight": 1.0,
        "id": 13692066938,
        "hasDetails": true,
        "name": "The BCN Studio",
        "amenity": "arts_centre",
        "address": "Carrer d'Elkano 26",
        "website": "https://www.thebcnstudio.com/"
      },
      "geometry": {
        "type": "Point",
        "coordinates": [
          2.1644091,
          41.3728145
        ]
      }
    },
    {
      "type": "Feature",
      "properties": {
        "weight": 1.0,
        "id": 6543118810,
        "hasDetails": true,
        "name": "Plataforma",
        "amenity": "nightclub",
        "address": "Carrer Nou de la Rambla 145, Barcelona"
      },
      "geometry": {
        "type": "Point",
        "coordinates": [
          2.1680013,
          41.3728751
        ]
      }
    },
    {
      "type": "Feature",
      "properties": {
        "weight": 1.0
      },
      "geometry": {
        "type": "Point",
        "coordinates": [
          2.1482535,
          41.3730394
        ]
      }
    },
    {
      "type": "Feature",
      "properties": {
        "weight": 1.0,
        "id": 13859960401,
        "hasDetails": true,
        "name": "Fluid",
        "amenity": "nightclub",
        "address": "Carrer de Salv\u00e0 21",
        "opening_hours": "Fr-Sa 20:00-03:00; Su 17:00-22:30; We-Th 20:00-01:00"
      },
      "geometry": {
        "type": "Point",
        "coordinates": [
          2.1662132,
          41.3737545
        ]
      }
    },
    {
      "type": "Feature",
      "properties": {
        "weight": 1.0,
        "id": 3689238459,
        "hasDetails": true,
        "name": "Espai tallerets - tallers creatius, comunitat i barri",
        "amenity": "arts_centre",
        "address": "Carrer d'Antoni de Capmany 71, Barcelona",
        "website": "https://www.tallerets.com"
      },
      "geometry": {
        "type": "Point",
        "coordinates": [
          2.1336228,
          41.3737618
        ]
      }
    },
    {
      "type": "Feature",
      "properties": {
        "weight": 1.0
      },
      "geometry": {
        "type": "Point",
        "coordinates": [
          2.1697111,
          41.3737857
        ]
      }
    },
    {
      "type": "Feature",
      "properties": {
        "weight": 1.0,
        "id": 6990651000,
        "hasDetails": true,
        "name": "Casa Montju\u00efc",
        "amenity": "theatre",
        "address": "Carrer de Vila i Vil\u00e0 65, Barcelona",
        "website": "https://www.casamontjuic.com",
        "wikidata": "Q23069680",
        "wikipedia": "ca:Sala Hiroshima"
      },
      "geometry": {
        "type": "Point",
        "coordinates": [
          2.1695922,
          41.3738696
        ]
      }
    },
    {
      "type": "Feature",
      "properties": {
        "weight": 1.0
      },
      "geometry": {
        "type": "Point",
        "coordinates": [
          2.1586905,
          41.3738977
        ]
      }
    },
    {
      "type": "Feature",
      "properties": {
        "weight": 1.0,
        "id": 10142531592,
        "hasDetails": true,
        "name": "Oracles Theater",
        "amenity": "theatre",
        "address": "Carrer de Tapioles 12, Barcelona",
        "website": "https://www.oraclestheatre.com/index.html"
      },
      "geometry": {
        "type": "Point",
        "coordinates": [
          2.1645433,
          41.3739321
        ]
      }
    },
    {
      "type": "Feature",
      "properties": {
        "weight": 1.0,
        "id": 4958849921,
        "hasDetails": true,
        "name": "Berlin Dark",
        "amenity": "nightclub",
        "address": "Passatge de Prunera 18, Barcelona",
        "website": "https://www.berlindark.com/",
        "opening_hours": "Tu-Th 22:00-03:00; Fr, Sa 22:00-03:30; Su 20:00-02:00"
      },
      "geometry": {
        "type": "Point",
        "coordinates": [
          2.1561764,
          41.3743162
        ]
      }
    },
    {
      "type": "Feature",
      "properties": {
        "weight": 1.0,
        "id": 12077033449,
        "hasDetails": true,
        "name": "Nitsa Club",
        "amenity": "nightclub",
        "website": "https://www.nitsa.com",
        "opening_hours": "Fr 23:59-23:59; Sa 00:00-06:00, 23:59-23:59, Su 00:00-06:00",
        "names": [
          "Nitsa Club",
          "Sala Apolo"
        ]
      },
      "geometry": {
        "type": "Point",
        "coordinates": [
          2.1695179,
          41.3743555
        ]
      }
    },
    {
      "type": "Feature",
      "properties": {
        "weight": 1.0,
        "id": 1711343680,
        "hasDetails": true,
        "name": "Sants Teatre del Centre",
        "amenity": "theatre",
        "address": "Carrer d'Antoni de Capmany 72,74,76, Barcelona"
      },
      "geometry": {
        "type": "Point",
        "coordinates": [
          2.1349158,
          41.3743883
        ]
      }
    },
    {
      "type": "Feature",
      "properties": {
        "weight": 1.0
      },
      "geometry": {
        "type": "Point",
        "coordinates": [
          2.1148664,
          41.3744995
        ]
      }
    },
    {
      "type": "Feature",
      "properties": {
        "weight": 1.0,
        "id": 1092685661,
        "hasDetails": true,
        "name": "El Molino",
        "amenity": "theatre",
        "address": "Carrer de Vila i Vil\u00e0 99",
        "wikidata": "Q3753567",
        "wikipedia": "ca:El Molino"
      },
      "geometry": {
        "type": "Point",
        "coordinates": [
          2.1672449,
          41.3745513
        ]
      }
    },
    {
      "type": "Feature",
      "properties": {
        "weight": 1.0,
        "id": 1092685767,
        "hasDetails": true,
        "name": "Teatre Apolo",
        "amenity": "theatre",
        "wikidata": "Q1780066",
        "wikipedia": "ca:Teatre Apolo (Barcelona)"
      },
      "geometry": {
        "type": "Point",
        "coordinates": [
          2.1703632,
          41.3747462
        ]
      }
    },
    {
      "type": "Feature",
      "properties": {
        "weight": 1.0,
        "id": 4725707889,
        "hasDetails": true,
        "name": "Condal",
        "amenity": "theatre",
        "wikidata": "Q965351",
        "wikipedia": "ca:Teatre Condal"
      },
      "geometry": {
        "type": "Point",
        "coordinates": [
          2.1647518,
          41.3747886
        ]
      }
    },
    {
      "type": "Feature",
      "properties": {
        "weight": 1.0,
        "id": 1092685763,
        "hasDetails": true,
        "name": "Teatre Vict\u00f2ria",
        "amenity": "theatre",
        "wikidata": "Q9082199",
        "wikipedia": "ca:Teatre Vict\u00f2ria (Barcelona)"
      },
      "geometry": {
        "type": "Point",
        "coordinates": [
          2.1687428,
          41.3748027
        ]
      }
    },
    {
      "type": "Feature",
      "properties": {
        "weight": 1.0
      },
      "geometry": {
        "type": "Point",
        "coordinates": [
          2.1885695,
          41.375239
        ]
      }
    },
    {
      "type": "Feature",
      "properties": {
        "weight": 1.0,
        "id": 217108957,
        "hasDetails": true,
        "name": "Teatre Arnau",
        "amenity": "theatre",
        "wikidata": "Q17152404",
        "wikipedia": "ca:Teatre Arnau"
      },
      "geometry": {
        "type": "Point",
        "coordinates": [
          2.1701188,
          41.3753504
        ]
      }
    },
    {
      "type": "Feature",
      "properties": {
        "weight": 1.0
      },
      "geometry": {
        "type": "Point",
        "coordinates": [
          2.1702374,
          41.3755945
        ]
      }
    },
    {
      "type": "Feature",
      "properties": {
        "weight": 1.0,
        "id": 196391570,
        "hasDetails": true,
        "name": "Teatre Tantarantana",
        "amenity": "theatre",
        "address": "Carrer de les Flors 22",
        "website": "http://www.tantarantana.com",
        "wikidata": "Q11951029",
        "wikipedia": "ca:Teatre Tantarantana"
      },
      "geometry": {
        "type": "Point",
        "coordinates": [
          2.1673377,
          41.3759466
        ]
      }
    },
    {
      "type": "Feature",
      "properties": {
        "weight": 1.0
      },
      "geometry": {
        "type": "Point",
        "coordinates": [
          2.170892,
          41.3761652
        ]
      }
    },
    {
      "type": "Feature",
      "properties": {
        "weight": 1.0,
        "id": 4551543970,
        "hasDetails": true,
        "name": "Arenas de Barcelona",
        "amenity": "cinema",
        "wikidata": "Q11913814",
        "wikipedia": "ca:Cine Arenas (Barcelona)"
      },
      "geometry": {
        "type": "Point",
        "coordinates": [
          2.1490436,
          41.3763433
        ]
      }
    },
    {
      "type": "Feature",
      "properties": {
        "weight": 1.0,
        "id": 338522965,
        "hasDetails": true,
        "name": "Centre d'Art Santa M\u00f2nica",
        "amenity": "arts_centre",
        "wikidata": "Q44692942",
        "wikipedia": "ca:Convent de Santa M\u00f2nica"
      },
      "geometry": {
        "type": "Point",
        "coordinates": [
          2.1756729,
          41.377203
        ]
      }
    },
    {
      "type": "Feature",
      "properties": {
        "weight": 1.0,
        "id": 3928572822,
        "hasDetails": true,
        "name": "Zumzeig",
        "amenity": "cinema",
        "address": "Carrer de B\u00e9jar 53, Barcelona",
        "opening_hours": "16:00-0:00"
      },
      "geometry": {
        "type": "Point",
        "coordinates": [
          2.1450266,
          41.3773203
        ]
      }
    },
    {
      "type": "Feature",
      "properties": {
        "weight": 1.0
      },
      "geometry": {
        "type": "Point",
        "coordinates": [
          2.0846778,
          41.3773291
        ]
      }
    },
    {
      "type": "Feature",
      "properties": {
        "weight": 1.0,
        "id": 3128253761,
        "hasDetails": true,
        "name": "Sala F\u00e8nix",
        "amenity": "arts_centre",
        "address": "Carrer de la Riereta 31",
        "website": "https://www.salafenix.com/"
      },
      "geometry": {
        "type": "Point",
        "coordinates": [
          2.1688338,
          41.3777589
        ]
      }
    },
    {
      "type": "Feature",
      "properties": {
        "weight": 1.0,
        "id": 13627121901,
        "hasDetails": true,
        "name": "Les Enfants Brillants",
        "amenity": "nightclub",
        "address": "Carrer de Gu\u00e0rdia 3",
        "website": "https://www.lesenfantsclub.com/"
      },
      "geometry": {
        "type": "Point",
        "coordinates": [
          2.1736809,
          41.3780486
        ]
      }
    },
    {
      "type": "Feature",
      "properties": {
        "weight": 1.0,
        "id": 4402381289,
        "hasDetails": true,
        "name": "Met\u00e0fora",
        "amenity": "arts_centre",
        "address": "Carrer de Papin 29, Barcelona",
        "website": "https://metafora.org/"
      },
      "geometry": {
        "type": "Point",
        "coordinates": [
          2.1330056,
          41.378155
        ]
      }
    },
    {
      "type": "Feature",
      "properties": {
        "weight": 1.0,
        "id": 3961122030,
        "hasDetails": true,
        "name": "Safari Disco Club",
        "amenity": "nightclub",
        "address": "Carrer de Tarragona 141-157, Barcelona",
        "website": "http://www.safaridiscoclub.com",
        "opening_hours": "Fr 23:59-06:00; Sa 18:00-23:45, 23:59-06:00; Su 18:00-23:45"
      },
      "geometry": {
        "type": "Point",
        "coordinates": [
          2.1448682,
          41.3783395
        ]
      }
    },
    {
      "type": "Feature",
      "properties": {
        "weight": 1.0,
        "id": 13598012801,
        "hasDetails": true,
        "name": "F.R.U.T.A.",
        "amenity": "arts_centre",
        "address": "Carrer de Badalona 15"
      },
      "geometry": {
        "type": "Point",
        "coordinates": [
          2.1366115,
          41.3784984
        ]
      }
    },
    {
      "type": "Feature",
      "properties": {
        "weight": 1.0,
        "id": 10667100,
        "hasDetails": true,
        "name": "Teatre Principal",
        "amenity": "theatre",
        "address": "La Rambla 27",
        "wikidata": "Q5658141",
        "wikipedia": "ca:Teatre Principal (Barcelona)"
      },
      "geometry": {
        "type": "Point",
        "coordinates": [
          2.1749346,
          41.3785197
        ]
      }
    },
    {
      "type": "Feature",
      "properties": {
        "weight": 1.0,
        "id": 147085468,
        "hasDetails": true,
        "name": "Filmoteca de Catalunya",
        "amenity": "cinema",
        "website": "https://www.filmoteca.cat/",
        "wikidata": "Q4894418",
        "wikipedia": "ca:Filmoteca de Catalunya"
      },
      "geometry": {
        "type": "Point",
        "coordinates": [
          2.1709403,
          41.378533
        ]
      }
    },
    {
      "type": "Feature",
      "properties": {
        "weight": 1.0,
        "id": 2247772387,
        "hasDetails": true,
        "name": "Boulevard Culture Club",
        "amenity": "nightclub",
        "address": "la Rambla 27"
      },
      "geometry": {
        "type": "Point",
        "coordinates": [
          2.1752978,
          41.3786292
        ]
      }
    },
    {
      "type": "Feature",
      "properties": {
        "weight": 1.0,
        "id": 5663248080,
        "hasDetails": true,
        "name": "R33",
        "amenity": "nightclub",
        "address": "La Rambla, el Raval"
      },
      "geometry": {
        "type": "Point",
        "coordinates": [
          2.1749439,
          41.3788563
        ]
      }
    },
    {
      "type": "Feature",
      "properties": {
        "weight": 1.0,
        "id": 4507233219,
        "hasDetails": true,
        "name": "Caf\u00e8-Teatre el Llantiol",
        "amenity": "theatre",
        "address": "Carrer de la Riereta 7, Barcelona",
        "website": "http://llantiol.com/",
        "wikidata": "Q17600633",
        "wikipedia": "ca:El Llantiol"
      },
      "geometry": {
        "type": "Point",
        "coordinates": [
          2.1674882,
          41.3788618
        ]
      }
    },
    {
      "type": "Feature",
      "properties": {
        "weight": 1.0,
        "id": 10810696989,
        "hasDetails": true,
        "name": "Tablao Flamenco Cordobes",
        "amenity": "theatre",
        "website": "https://tablaocordobes.es/"
      },
      "geometry": {
        "type": "Point",
        "coordinates": [
          2.1746555,
          41.379138
        ]
      }
    },
    {
      "type": "Feature",
      "properties": {
        "weight": 1.0,
        "id": 13673253791,
        "hasDetails": true,
        "name": "Secret Comedy Club",
        "amenity": "arts_centre",
        "address": "Carrer de la Junta del Comer\u00e7 28"
      },
      "geometry": {
        "type": "Point",
        "coordinates": [
          2.1718521,
          41.3792281
        ]
      }
    },
    {
      "type": "Feature",
      "properties": {
        "weight": 1.0,
        "id": 3096906054,
        "hasDetails": true,
        "name": "Teatre del Raval",
        "amenity": "theatre",
        "address": "Carrer de Sant Antoni Abat 12, Barcelona",
        "website": "http://www.teatredelraval.com/contacte/",
        "wikidata": "Q11951057",
        "wikipedia": "ca:Teatre del Raval"
      },
      "geometry": {
        "type": "Point",
        "coordinates": [
          2.1650025,
          41.3793223
        ]
      }
    },
    {
      "type": "Feature",
      "properties": {
        "weight": 1.0,
        "id": 2879811887,
        "hasDetails": true,
        "name": "Macarena Club",
        "amenity": "nightclub",
        "address": "Carrer Nou de Sant Francesc 5, Barcelona",
        "website": "https://www.macarenaclub.com/"
      },
      "geometry": {
        "type": "Point",
        "coordinates": [
          2.1768641,
          41.3794046
        ]
      }
    },
    {
      "type": "Feature",
      "properties": {
        "weight": 1.0
      },
      "geometry": {
        "type": "Point",
        "coordinates": [
          2.0888829,
          41.3794299
        ]
      }
    },
    {
      "type": "Feature",
      "properties": {
        "weight": 1.0,
        "id": 2457866965,
        "hasDetails": true,
        "name": "Jamboree",
        "amenity": "nightclub",
        "address": "Pla\u00e7a Reial 18"
      },
      "geometry": {
        "type": "Point",
        "coordinates": [
          2.1751933,
          41.3797128
        ]
      }
    },
    {
      "type": "Feature",
      "properties": {
        "weight": 1.0
      },
      "geometry": {
        "type": "Point",
        "coordinates": [
          2.1334164,
          41.3798286
        ]
      }
    },
    {
      "type": "Feature",
      "properties": {
        "weight": 1.0
      },
      "geometry": {
        "type": "Point",
        "coordinates": [
          2.1862228,
          41.3799209
        ]
      }
    },
    {
      "type": "Feature",
      "properties": {
        "weight": 1.0,
        "id": 10426929,
        "hasDetails": true,
        "name": "Gran Teatre del Liceu",
        "amenity": "theatre",
        "website": "http://www.liceubarcelona.cat/",
        "wikidata": "Q1130050",
        "wikipedia": "ca:Gran Teatre del Liceu"
      },
      "geometry": {
        "type": "Point",
        "coordinates": [
          2.1734126,
          41.3801319
        ]
      }
    },
    {
      "type": "Feature",
      "properties": {
        "weight": 1.0,
        "id": 10795345,
        "hasDetails": true,
        "amenity": "theatre",
        "wikidata": "Q4569267",
        "wikipedia": "ca:Teatre Romea (Barcelona)"
      },
      "geometry": {
        "type": "Point",
        "coordinates": [
          2.1712814,
          41.3803054
        ]
      }
    },
    {
      "type": "Feature",
      "properties": {
        "weight": 1.0,
        "id": 441597033,
        "hasDetails": true,
        "name": "Teatre Romea",
        "amenity": "theatre",
        "address": "Carrer de l'Hospital 51",
        "website": "http://www.teatreromea.com/",
        "wikidata": "Q4569267",
        "wikipedia": "ca:Teatre Romea (Barcelona)"
      },
      "geometry": {
        "type": "Point",
        "coordinates": [
          2.1710813,
          41.3805321
        ]
      }
    },
    {
      "type": "Feature",
      "properties": {
        "weight": 1.0
      },
      "geometry": {
        "type": "Point",
        "coordinates": [
          2.1705316,
          41.3805552
        ]
      }
    },
    {
      "type": "Feature",
      "properties": {
        "weight": 1.0,
        "id": 2522915521,
        "hasDetails": true,
        "name": "Sala de Fiestas Tango",
        "amenity": "nightclub",
        "address": "Carrer de la Diputaci\u00f3 94, Barcelona",
        "website": "https://saladefiestastango.com/"
      },
      "geometry": {
        "type": "Point",
        "coordinates": [
          2.1545811,
          41.3808462
        ]
      }
    },
    {
      "type": "Feature",
      "properties": {
        "weight": 1.0,
        "id": 6085794323,
        "hasDetails": true,
        "name": "Base Elements",
        "amenity": "arts_centre",
        "address": "Carrer de Palau 6"
      },
      "geometry": {
        "type": "Point",
        "coordinates": [
          2.1781569,
          41.3810627
        ]
      }
    },
    {
      "type": "Feature",
      "properties": {
        "weight": 1.0
      },
      "geometry": {
        "type": "Point",
        "coordinates": [
          2.1701712,
          41.3810904
        ]
      }
    },
    {
      "type": "Feature",
      "properties": {
        "weight": 1.0,
        "id": 1241914249,
        "hasDetails": true,
        "name": "la Fabrica",
        "amenity": "arts_centre",
        "website": "https://ricardobofill.com/la-fabrica/read/"
      },
      "geometry": {
        "type": "Point",
        "coordinates": [
          2.0685025,
          41.3810949
        ]
      }
    },
    {
      "type": "Feature",
      "properties": {
        "weight": 1.0,
        "id": 2457874856,
        "hasDetails": true,
        "name": "Harlem Jazz Club",
        "amenity": "nightclub",
        "address": "Carrer de la Comtessa de Sobradiel 8, Barcelona",
        "website": "https://www.harlemjazzclub.es/"
      },
      "geometry": {
        "type": "Point",
        "coordinates": [
          2.1784298,
          41.3811234
        ]
      }
    },
    {
      "type": "Feature",
      "properties": {
        "weight": 1.0,
        "id": 2923513235,
        "hasDetails": true,
        "name": "Downtown Barcelona",
        "amenity": "nightclub",
        "address": "Avinguda del Doctor Mara\u00f1\u00f3n 17, Barcelona",
        "website": "https://downtownbarcelona.es/",
        "opening_hours": "Th 00:00-05:00; Fr-Sa 00:00-06:00"
      },
      "geometry": {
        "type": "Point",
        "coordinates": [
          2.1143271,
          41.381261
        ]
      }
    },
    {
      "type": "Feature",
      "properties": {
        "weight": 1.0,
        "id": 13850116401,
        "hasDetails": true,
        "name": "BIG: Barcelona Improv Group",
        "amenity": "theatre",
        "address": "Carrer del Comte Borrell 143",
        "website": "https://www.barcelonaimprovgroup.com/"
      },
      "geometry": {
        "type": "Point",
        "coordinates": [
          2.1566846,
          41.3817461
        ]
      }
    },
    {
      "type": "Feature",
      "properties": {
        "weight": 1.0,
        "id": 249402942,
        "hasDetails": true,
        "name": "Renoir Floridablanca",
        "amenity": "cinema",
        "address": "Carrer de Floridablanca 135, 139, Barcelona",
        "website": "https://www.cinesrenoir.com/"
      },
      "geometry": {
        "type": "Point",
        "coordinates": [
          2.162327,
          41.3818603
        ]
      }
    },
    {
      "type": "Feature",
      "properties": {
        "weight": 1.0,
        "id": 12246183831,
        "hasDetails": true,
        "name": "La Paloma",
        "amenity": "nightclub",
        "address": "Carrer del Tigre 27, Barcelona",
        "website": "https://lapaloma.com"
      },
      "geometry": {
        "type": "Point",
        "coordinates": [
          2.1642234,
          41.382371
        ]
      }
    },
    {
      "type": "Feature",
      "properties": {
        "weight": 1.0,
        "id": 13667410968,
        "hasDetails": true,
        "name": "The Comedy Clubhouse Canvis Nous",
        "amenity": "arts_centre",
        "address": "Carrer dels Canvis Nous 10"
      },
      "geometry": {
        "type": "Point",
        "coordinates": [
          2.1818041,
          41.3829317
        ]
      }
    },
    {
      "type": "Feature",
      "properties": {
        "weight": 1.0,
        "id": 3892711667,
        "hasDetails": true,
        "name": "Museum",
        "amenity": "nightclub",
        "address": "Carrer de Sep\u00falveda 178, Barcelona",
        "opening_hours": "Fr-Sa 23:00-03:00"
      },
      "geometry": {
        "type": "Point",
        "coordinates": [
          2.162742,
          41.3831657
        ]
      }
    },
    {
      "type": "Feature",
      "properties": {
        "weight": 1.0,
        "id": 4326495653,
        "hasDetails": true,
        "name": "Cinema Mald\u00e0",
        "amenity": "cinema",
        "address": "Carrer del Pi 5, Barcelona",
        "website": "https://www.cinemamalda.com/",
        "opening_hours": "Mo-Su 14:00-23:30",
        "wikidata": "Q11913829",
        "wikipedia": "ca:Cinema Mald\u00e0"
      },
      "geometry": {
        "type": "Point",
        "coordinates": [
          2.1739003,
          41.3832363
        ]
      }
    },
    {
      "type": "Feature",
      "properties": {
        "weight": 1.0
      },
      "geometry": {
        "type": "Point",
        "coordinates": [
          2.1894771,
          41.383278
        ]
      }
    },
    {
      "type": "Feature",
      "properties": {
        "weight": 1.0
      },
      "geometry": {
        "type": "Point",
        "coordinates": [
          2.1649782,
          41.383579
        ]
      }
    },
    {
      "type": "Feature",
      "properties": {
        "weight": 1.0,
        "id": 672398198,
        "hasDetails": true,
        "name": "Poliorama",
        "amenity": "theatre",
        "wikidata": "Q3982102",
        "wikipedia": "ca:Teatre Poliorama"
      },
      "geometry": {
        "type": "Point",
        "coordinates": [
          2.1707374,
          41.3840778
        ]
      }
    },
    {
      "type": "Feature",
      "properties": {
        "weight": 1.0,
        "id": 595384323,
        "hasDetails": true,
        "name": "Teatre Goya",
        "amenity": "theatre",
        "wikidata": "Q18008292",
        "wikipedia": "ca:Teatre Goya (Barcelona)"
      },
      "geometry": {
        "type": "Point",
        "coordinates": [
          2.164267,
          41.384087
        ]
      }
    },
    {
      "type": "Feature",
      "properties": {
        "weight": 1.0,
        "id": 2086220192,
        "hasDetails": true,
        "name": "Teatre Muntaner",
        "amenity": "theatre",
        "address": "Carrer de Muntaner 4, Barcelona",
        "website": "http://salamuntaner.com"
      },
      "geometry": {
        "type": "Point",
        "coordinates": [
          2.162911,
          41.3841161
        ]
      }
    },
    {
      "type": "Feature",
      "properties": {
        "weight": 1.0
      },
      "geometry": {
        "type": "Point",
        "coordinates": [
          2.1472514,
          41.3842012
        ]
      }
    },
    {
      "type": "Feature",
      "properties": {
        "weight": 1.0
      },
      "geometry": {
        "type": "Point",
        "coordinates": [
          2.0772926,
          41.3842378
        ]
      }
    },
    {
      "type": "Feature",
      "properties": {
        "weight": 1.0,
        "id": 4958833624,
        "hasDetails": true,
        "name": "Night Barcelona",
        "amenity": "nightclub",
        "address": "Carrer de la Diputaci\u00f3 161",
        "website": "https://www.nightbarcelona.net/",
        "opening_hours": "Mo-Th 18:00-02:30; Fr-Sa 18:00-03:00; Su 18:00-02:30"
      },
      "geometry": {
        "type": "Point",
        "coordinates": [
          2.1587144,
          41.3842982
        ]
      }
    },
    {
      "type": "Feature",
      "properties": {
        "weight": 1.0,
        "id": 4090180417,
        "hasDetails": true,
        "name": "La Villarroel",
        "amenity": "theatre",
        "address": "Carrer de Villarroel 87, Barcelona",
        "website": "https://www.lavillarroel.cat",
        "wikidata": "Q11930951",
        "wikipedia": "ca:La Villarroel"
      },
      "geometry": {
        "type": "Point",
        "coordinates": [
          2.1574535,
          41.3845106
        ]
      }
    },
    {
      "type": "Feature",
      "properties": {
        "weight": 1.0,
        "id": 6174638255,
        "hasDetails": true,
        "name": "Reial Cercle Art\u00edstic de Barcelona",
        "amenity": "arts_centre",
        "address": "Carrer dels Arcs 5, Barcelona"
      },
      "geometry": {
        "type": "Point",
        "coordinates": [
          2.1745111,
          41.3845322
        ]
      }
    },
    {
      "type": "Feature",
      "properties": {
        "weight": 1.0,
        "id": 2247754303,
        "hasDetails": true,
        "name": "Antilla Latin Club",
        "amenity": "nightclub",
        "address": "Carrer d'Arag\u00f3 141",
        "website": "https://www.antillasalsa.com/",
        "opening_hours": "We 22:00-05:00; Th 23:00-05:00; Fr,Sa 23:00-06:00; Su 19:00-sunrise, PH-1day 23:00-05:00"
      },
      "geometry": {
        "type": "Point",
        "coordinates": [
          2.1545955,
          41.3845653
        ]
      }
    },
    {
      "type": "Feature",
      "properties": {
        "weight": 1.0
      },
      "geometry": {
        "type": "Point",
        "coordinates": [
          2.1814105,
          41.384673
        ]
      }
    },
    {
      "type": "Feature",
      "properties": {
        "weight": 1.0,
        "id": 4958833022,
        "hasDetails": true,
        "name": "Open Mind",
        "amenity": "nightclub",
        "website": "https://www.openmindbcn.com/",
        "opening_hours": "Mo 00:00-05:00, Th 23:00-00:00, Fr-Sa 00:00-04:00, 23:00-00:00, Su 00:00-07:00, 20:00-00:00"
      },
      "geometry": {
        "type": "Point",
        "coordinates": [
          2.155696,
          41.3849379
        ]
      }
    },
    {
      "type": "Feature",
      "properties": {
        "weight": 1.0,
        "id": 691591941,
        "hasDetails": true,
        "name": "Club Capitol",
        "amenity": "theatre",
        "wikidata": "Q8347023",
        "wikipedia": "ca:Club Capitol"
      },
      "geometry": {
        "type": "Point",
        "coordinates": [
          2.1707085,
          41.3849977
        ]
      }
    },
    {
      "type": "Feature",
      "properties": {
        "weight": 1.0,
        "id": 2136122201,
        "hasDetails": true,
        "name": "La Seca Espai Brossa",
        "amenity": "theatre",
        "address": "Carrer dels Flassaders 40, Barcelona",
        "website": "http://www.laseca.cat/"
      },
      "geometry": {
        "type": "Point",
        "coordinates": [
          2.1823507,
          41.3851859
        ]
      }
    },
    {
      "type": "Feature",
      "properties": {
        "weight": 1.0
      },
      "geometry": {
        "type": "Point",
        "coordinates": [
          2.172046,
          41.3852951
        ]
      }
    },
    {
      "type": "Feature",
      "properties": {
        "weight": 1.0,
        "id": 9801832818,
        "hasDetails": true,
        "name": "Enten\u00e7a 214 Skylab",
        "amenity": "nightclub",
        "address": "Carrer d'Enten\u00e7a 214"
      },
      "geometry": {
        "type": "Point",
        "coordinates": [
          2.1430297,
          41.3855135
        ]
      }
    },
    {
      "type": "Feature",
      "properties": {
        "weight": 1.0,
        "id": 3481112677,
        "hasDetails": true,
        "name": "Latin Palace",
        "amenity": "nightclub",
        "address": "Carrer de Ramon Trias Fargas 2-4"
      },
      "geometry": {
        "type": "Point",
        "coordinates": [
          2.1967637,
          41.3858135
        ]
      }
    },
    {
      "type": "Feature",
      "properties": {
        "weight": 1.0,
        "id": 11443286442,
        "hasDetails": true,
        "name": "Centre Artistic Sant Lluc",
        "amenity": "arts_centre",
        "address": "Carrer de Mercaders, Barcelona",
        "website": "https://www.santlluc.cat/"
      },
      "geometry": {
        "type": "Point",
        "coordinates": [
          2.1768862,
          41.3859865
        ]
      }
    },
    {
      "type": "Feature",
      "properties": {
        "weight": 1.0,
        "id": 4776903513,
        "hasDetails": true,
        "name": "Aribau Multicines",
        "amenity": "cinema",
        "wikidata": "Q30097460",
        "wikipedia": "ca:Cine Aribau"
      },
      "geometry": {
        "type": "Point",
        "coordinates": [
          2.1625633,
          41.3861016
        ]
      }
    },
    {
      "type": "Feature",
      "properties": {
        "weight": 1.0,
        "id": 672631671,
        "hasDetails": true,
        "name": "Casa dels Entremesos",
        "amenity": "arts_centre",
        "website": "https://lacasadelsentremesos.cat/",
        "wikidata": "Q19367784",
        "wikipedia": "ca:Casa dels Entremesos"
      },
      "geometry": {
        "type": "Point",
        "coordinates": [
          2.1768556,
          41.3861855
        ]
      }
    },
    {
      "type": "Feature",
      "properties": {
        "weight": 1.0,
        "id": 231671741,
        "hasDetails": true,
        "name": "Casino Barcelona",
        "amenity": "casino",
        "website": "https://www.casinobarcelona.com/",
        "opening_hours": "24/7",
        "wikidata": "Q4896126",
        "wikipedia": "en:Casino Internacional Tibidabo"
      },
      "geometry": {
        "type": "Point",
        "coordinates": [
          2.1967642,
          41.386461
        ]
      }
    },
    {
      "type": "Feature",
      "properties": {
        "weight": 1.0,
        "id": 9233320104,
        "hasDetails": true,
        "name": "La Puntual. Putxinel\u00b7lis de Barcelona",
        "amenity": "theatre",
        "website": "https://www.lapuntual.info",
        "wikidata": "Q11930716",
        "wikipedia": "ca:La Puntual"
      },
      "geometry": {
        "type": "Point",
        "coordinates": [
          2.1812244,
          41.3868174
        ]
      }
    },
    {
      "type": "Feature",
      "properties": {
        "weight": 1.0,
        "id": 54118690,
        "hasDetails": true,
        "name": "Can Ginestar",
        "amenity": "arts_centre",
        "wikidata": "Q17614830",
        "wikipedia": "ca:Can Ginestar"
      },
      "geometry": {
        "type": "Point",
        "coordinates": [
          2.0756925,
          41.386988
        ]
      }
    },
    {
      "type": "Feature",
      "properties": {
        "weight": 1.0,
        "id": 4851290023,
        "hasDetails": true,
        "name": "L'Antic Teatre",
        "amenity": "theatre",
        "wikidata": "Q11951052",
        "wikipedia": "ca:Teatre del Cercle Barcelon\u00e8s de Sant Josep"
      },
      "geometry": {
        "type": "Point",
        "coordinates": [
          2.1759819,
          41.3871392
        ]
      }
    },
    {
      "type": "Feature",
      "properties": {
        "weight": 1.0,
        "id": 377216661,
        "hasDetails": true,
        "name": "Palau de la M\u00fasica Catalana",
        "amenity": "theatre",
        "address": "Carrer del Palau de la M\u00fasica 4-6, Barcelona",
        "website": "https://www.palaumusica.cat/",
        "opening_hours": "Mo-Su 09:00-15:30",
        "wikidata": "Q327940",
        "wikipedia": "ca:Palau de la M\u00fasica Catalana"
      },
      "geometry": {
        "type": "Point",
        "coordinates": [
          2.1752198,
          41.3875838
        ]
      }
    },
    {
      "type": "Feature",
      "properties": {
        "weight": 1.0,
        "id": 4958889874,
        "hasDetails": true,
        "name": "The Black Room",
        "amenity": "nightclub",
        "address": "Rambla de Catalunya 4, Barcelona",
        "opening_hours": "Mo 01:00-20:30; Tu 01:30-23:00; We 03:30-21:30; Th 09:00-20:00",
        "names": [
          "The Black Room",
          "City Hall"
        ],
        "amenities": [
          "nightclub",
          "theatre"
        ]
      },
      "geometry": {
        "type": "Point",
        "coordinates": [
          2.1682772,
          41.3877311
        ]
      }
    },
    {
      "type": "Feature",
      "properties": {
        "weight": 1.0,
        "id": 249407520,
        "hasDetails": true,
        "name": "Teatre Coliseum",
        "amenity": "theatre",
        "address": "Gran Via de les Corts Catalanes 595",
        "website": "https://www.balanaenviu.com/teatre/teatre-coliseum",
        "wikidata": "Q5145764",
        "wikipedia": "ca:Cinema Coliseum"
      },
      "geometry": {
        "type": "Point",
        "coordinates": [
          2.1659913,
          41.3883096
        ]
      }
    },
    {
      "type": "Feature",
      "properties": {
        "weight": 1.0,
        "id": 2498389550,
        "hasDetails": true,
        "name": "Black Box",
        "amenity": "nightclub",
        "address": "Carrer de la Diputaci\u00f3 233, Barcelona",
        "opening_hours": "Fr-Sa 23:59-06:00"
      },
      "geometry": {
        "type": "Point",
        "coordinates": [
          2.1639798,
          41.3884366
        ]
      }
    },
    {
      "type": "Feature",
      "properties": {
        "weight": 1.0
      },
      "geometry": {
        "type": "Point",
        "coordinates": [
          2.1738887,
          41.3884562
        ]
      }
    },
    {
      "type": "Feature",
      "properties": {
        "weight": 1.0,
        "id": 6103044290,
        "hasDetails": true,
        "name": "Cora Egger El Atelier",
        "amenity": "arts_centre",
        "address": "Carrer de Sant Pere M\u00e9s Alt 48, Barcelona",
        "website": "https://el-atelier.org/es/main/home/"
      },
      "geometry": {
        "type": "Point",
        "coordinates": [
          2.1770897,
          41.3886518
        ]
      }
    },
    {
      "type": "Feature",
      "properties": {
        "weight": 1.0,
        "id": 4254671048,
        "hasDetails": true,
        "name": "Teatre T\u00edvoli",
        "amenity": "theatre",
        "address": "Carrer de Casp 8",
        "wikidata": "Q5101816",
        "wikipedia": "ca:Teatre T\u00edvoli (Barcelona)"
      },
      "geometry": {
        "type": "Point",
        "coordinates": [
          2.17027,
          41.3888056
        ]
      }
    },
    {
      "type": "Feature",
      "properties": {
        "weight": 1.0,
        "id": 5001130370,
        "hasDetails": true,
        "name": "Teatre Borr\u00e0s",
        "amenity": "theatre",
        "address": "Pla\u00e7a d'Urquinaona 9",
        "wikidata": "Q11950998",
        "wikipedia": "ca:Teatre Borr\u00e0s"
      },
      "geometry": {
        "type": "Point",
        "coordinates": [
          2.1735904,
          41.3888477
        ]
      }
    },
    {
      "type": "Feature",
      "properties": {
        "weight": 1.0
      },
      "geometry": {
        "type": "Point",
        "coordinates": [
          2.1809295,
          41.3893319
        ]
      }
    },
    {
      "type": "Feature",
      "properties": {
        "weight": 1.0,
        "id": 704066083,
        "hasDetails": true,
        "name": "Comedia",
        "amenity": "cinema",
        "wikidata": "Q17597433",
        "wikipedia": "ca:Cinema Com\u00e8dia"
      },
      "geometry": {
        "type": "Point",
        "coordinates": [
          2.1675802,
          41.3893894
        ]
      }
    },
    {
      "type": "Feature",
      "properties": {
        "weight": 1.0,
        "id": 13069782182,
        "hasDetails": true,
        "name": "Believe Club",
        "amenity": "nightclub",
        "address": "Carrer de Balmes 56, Barcelona",
        "website": "https://thebelieve.club/",
        "opening_hours": "Mo-Th 23:00-05:00; Fr-Sa 23:00-06:00; Su 23:00-05:00"
      },
      "geometry": {
        "type": "Point",
        "coordinates": [
          2.1626074,
          41.389444
        ]
      }
    },
    {
      "type": "Feature",
      "properties": {
        "weight": 1.0,
        "id": 249402011,
        "hasDetails": true,
        "name": "Sala Bikini",
        "amenity": "nightclub",
        "address": "Avinguda Diagonal 547, Barcelona",
        "wikidata": "Q11946658",
        "wikipedia": "ca:Sala Bikini"
      },
      "geometry": {
        "type": "Point",
        "coordinates": [
          2.1370991,
          41.3894576
        ]
      }
    },
    {
      "type": "Feature",
      "properties": {
        "weight": 1.0,
        "id": 5174310399,
        "hasDetails": true,
        "name": "Mutuo",
        "amenity": "arts_centre",
        "address": "Carrer de M\u00e9ndez N\u00fa\u00f1ez 7, Barcelona",
        "website": "http://mutuo.cat/"
      },
      "geometry": {
        "type": "Point",
        "coordinates": [
          2.177809,
          41.3895547
        ]
      }
    },
    {
      "type": "Feature",
      "properties": {
        "weight": 1.0,
        "id": 10649981205,
        "hasDetails": true,
        "name": "Arena Xperience",
        "amenity": "nightclub",
        "address": "Ronda de Sant Pere 19-21",
        "website": "https://grupoarena.com/",
        "opening_hours": "Su-Th 23:59-05:00; Fr-Sa 23:59-06:00"
      },
      "geometry": {
        "type": "Point",
        "coordinates": [
          2.1739427,
          41.3895686
        ]
      }
    },
    {
      "type": "Feature",
      "properties": {
        "weight": 1.0,
        "id": 6557494610,
        "hasDetails": true,
        "name": "Aquitania",
        "amenity": "theatre",
        "wikidata": "Q11913810",
        "wikipedia": "ca:Cine Aquitania"
      },
      "geometry": {
        "type": "Point",
        "coordinates": [
          2.1447718,
          41.3901979
        ]
      }
    },
    {
      "type": "Feature",
      "properties": {
        "weight": 1.0
      },
      "geometry": {
        "type": "Point",
        "coordinates": [
          2.1589181,
          41.3902377
        ]
      }
    },
    {
      "type": "Feature",
      "properties": {
        "weight": 1.0,
        "id": 9868296417,
        "hasDetails": true,
        "amenity": "nightclub",
        "address": "Avinguda de Sarri\u00e0 8"
      },
      "geometry": {
        "type": "Point",
        "coordinates": [
          2.1462355,
          41.3902777
        ]
      }
    },
    {
      "type": "Feature",
      "properties": {
        "weight": 1.0,
        "id": 11690535934,
        "hasDetails": true,
        "name": "La Fira Casanova",
        "amenity": "nightclub",
        "address": "Carrer de Casanova 171, Barcelona",
        "website": "https://lafiragroup.com"
      },
      "geometry": {
        "type": "Point",
        "coordinates": [
          2.1500484,
          41.3918937
        ]
      }
    },
    {
      "type": "Feature",
      "properties": {
        "weight": 1.0
      },
      "geometry": {
        "type": "Point",
        "coordinates": [
          2.147171,
          41.3927386
        ]
      }
    },
    {
      "type": "Feature",
      "properties": {
        "weight": 1.0,
        "id": 1886635516,
        "hasDetails": true,
        "name": "Chica Club",
        "amenity": "nightclub",
        "address": "Carrer del Rossell\u00f3 217, Barcelona",
        "website": "https://www.chicabcn.cat"
      },
      "geometry": {
        "type": "Point",
        "coordinates": [
          2.1568896,
          41.393099
        ]
      }
    },
    {
      "type": "Feature",
      "properties": {
        "weight": 1.0
      },
      "geometry": {
        "type": "Point",
        "coordinates": [
          2.1580101,
          41.3936124
        ]
      }
    },
    {
      "type": "Feature",
      "properties": {
        "weight": 1.0,
        "id": 496060481,
        "hasDetails": true,
        "name": "Cinesa Diagonal",
        "amenity": "cinema",
        "address": "Carrer Santa Fe De Nou M\u00e8xic sn"
      },
      "geometry": {
        "type": "Point",
        "coordinates": [
          2.1363579,
          41.393745
        ]
      }
    },
    {
      "type": "Feature",
      "properties": {
        "weight": 1.0,
        "id": 2247748060,
        "hasDetails": true,
        "name": "Club Astoria",
        "amenity": "nightclub",
        "address": "Carrer de Par\u00eds 193",
        "website": "https://www.clubastoriabcn.com/"
      },
      "geometry": {
        "type": "Point",
        "coordinates": [
          2.1532409,
          41.3938378
        ]
      }
    },
    {
      "type": "Feature",
      "properties": {
        "weight": 1.0,
        "id": 13583557201,
        "hasDetails": true,
        "name": "Weed Park Barcelona",
        "amenity": "nightclub",
        "address": "Carrer de Roger de Flor 96",
        "opening_hours": "Mo-Su 10:00-00:00"
      },
      "geometry": {
        "type": "Point",
        "coordinates": [
          2.1787479,
          41.3943422
        ]
      }
    },
    {
      "type": "Feature",
      "properties": {
        "weight": 1.0,
        "id": 6387346287,
        "hasDetails": true,
        "name": "Luz de Gas",
        "amenity": "nightclub",
        "address": "Carrer de Muntaner 246, Barcelona",
        "wikidata": "Q11934306",
        "wikipedia": "ca:Luz de Gas"
      },
      "geometry": {
        "type": "Point",
        "coordinates": [
          2.1490385,
          41.3945996
        ]
      }
    },
    {
      "type": "Feature",
      "properties": {
        "weight": 1.0
      },
      "geometry": {
        "type": "Point",
        "coordinates": [
          2.1340573,
          41.394792
        ]
      }
    },
    {
      "type": "Feature",
      "properties": {
        "weight": 1.0,
        "id": 8685951182,
        "hasDetails": true,
        "name": "Costa Breve",
        "amenity": "nightclub",
        "address": "Carrer d'Aribau 230",
        "website": "https://grupocostabreve.com/",
        "opening_hours": "Th 00:00-05:00; Fr,Sa 00:00-06:00"
      },
      "geometry": {
        "type": "Point",
        "coordinates": [
          2.1503847,
          41.3952962
        ]
      }
    },
    {
      "type": "Feature",
      "properties": {
        "weight": 1.0
      },
      "geometry": {
        "type": "Point",
        "coordinates": [
          2.1589318,
          41.3953869
        ]
      }
    },
    {
      "type": "Feature",
      "properties": {
        "weight": 1.0,
        "id": 10091572577,
        "hasDetails": true,
        "name": "La Biblio",
        "amenity": "nightclub",
        "address": "Carrer de Moi\u00e0 1"
      },
      "geometry": {
        "type": "Point",
        "coordinates": [
          2.1521881,
          41.3954764
        ]
      }
    },
    {
      "type": "Feature",
      "properties": {
        "weight": 1.0
      },
      "geometry": {
        "type": "Point",
        "coordinates": [
          2.1489582,
          41.3955637
        ]
      }
    },
    {
      "type": "Feature",
      "properties": {
        "weight": 1.0,
        "id": 345578584,
        "hasDetails": true,
        "name": "Taller Masriera",
        "amenity": "theatre",
        "wikidata": "Q19257604",
        "wikipedia": "ca:Taller Masriera"
      },
      "geometry": {
        "type": "Point",
        "coordinates": [
          2.1727482,
          41.3957289
        ]
      }
    },
    {
      "type": "Feature",
      "properties": {
        "weight": 1.0,
        "id": 8658397927,
        "hasDetails": true,
        "name": "Barroko's",
        "amenity": "nightclub",
        "address": "Carrer d'Aribau 242",
        "website": "https://www.discotecabarrokos.com/"
      },
      "geometry": {
        "type": "Point",
        "coordinates": [
          2.1497718,
          41.3957578
        ]
      }
    },
    {
      "type": "Feature",
      "properties": {
        "weight": 1.0,
        "id": 8617150528,
        "hasDetails": true,
        "name": "Lo Spazio",
        "amenity": "arts_centre",
        "address": "Carrer de Balmes 171",
        "website": "https://lospazio.es/inicio/"
      },
      "geometry": {
        "type": "Point",
        "coordinates": [
          2.153838,
          41.3958517
        ]
      }
    },
    {
      "type": "Feature",
      "properties": {
        "weight": 1.0,
        "id": 12244682322,
        "hasDetails": true,
        "name": "Wolf",
        "amenity": "nightclub",
        "address": "Carrer dels Almog\u00e0vers 86"
      },
      "geometry": {
        "type": "Point",
        "coordinates": [
          2.1886684,
          41.3958866
        ]
      }
    },
    {
      "type": "Feature",
      "properties": {
        "weight": 1.0,
        "id": 2910255021,
        "hasDetails": true,
        "name": "Sutton Club",
        "amenity": "nightclub",
        "address": "Carrer Tuset 13, Barcelona",
        "website": "https://www.suttonbarcelona.com/"
      },
      "geometry": {
        "type": "Point",
        "coordinates": [
          2.1517438,
          41.3959489
        ]
      }
    },
    {
      "type": "Feature",
      "properties": {
        "weight": 1.0,
        "id": 5791835753,
        "hasDetails": true,
        "name": "Jove Teatre Regina",
        "amenity": "theatre",
        "address": "Carrer de S\u00e8neca 22",
        "wikidata": "Q18006198",
        "wikipedia": "ca:Jove Teatre Regina"
      },
      "geometry": {
        "type": "Point",
        "coordinates": [
          2.1560889,
          41.3968292
        ]
      }
    },
    {
      "type": "Feature",
      "properties": {
        "weight": 1.0
      },
      "geometry": {
        "type": "Point",
        "coordinates": [
          2.1920045,
          41.3970111
        ]
      }
    },
    {
      "type": "Feature",
      "properties": {
        "weight": 1.0,
        "id": 6854723168,
        "hasDetails": true,
        "name": "Imperator",
        "amenity": "nightclub",
        "address": "Carrer de Corsega 327"
      },
      "geometry": {
        "type": "Point",
        "coordinates": [
          2.1600197,
          41.3972085
        ]
      }
    },
    {
      "type": "Feature",
      "properties": {
        "weight": 1.0,
        "id": 5554720357,
        "hasDetails": true,
        "name": "Razzmatazz sales 2 & 3",
        "amenity": "nightclub",
        "opening_hours": "\"Depending on the concert\""
      },
      "geometry": {
        "type": "Point",
        "coordinates": [
          2.1910762,
          41.3972784
        ]
      }
    },
    {
      "type": "Feature",
      "properties": {
        "weight": 1.0
      },
      "geometry": {
        "type": "Point",
        "coordinates": [
          2.173756,
          41.3972955
        ]
      }
    },
    {
      "type": "Feature",
      "properties": {
        "weight": 1.0,
        "id": 426162558,
        "hasDetails": true,
        "name": "Razzmatazz",
        "amenity": "nightclub",
        "address": "Carrer dels Almog\u00e0vers 122",
        "website": "https://www.salarazzmatazz.com/",
        "opening_hours": "\"Depending on the concert\"",
        "wikidata": "Q249462",
        "wikipedia": "ca:Razzmatazz"
      },
      "geometry": {
        "type": "Point",
        "coordinates": [
          2.191249,
          41.3975851
        ]
      }
    },
    {
      "type": "Feature",
      "properties": {
        "weight": 1.0,
        "id": 510718894,
        "hasDetails": true,
        "name": "Ideal. Centre D'arts Digital",
        "amenity": "arts_centre",
        "website": "https://idealbarcelona.com/"
      },
      "geometry": {
        "type": "Point",
        "coordinates": [
          2.2028311,
          41.3975979
        ]
      }
    },
    {
      "type": "Feature",
      "properties": {
        "weight": 1.0
      },
      "geometry": {
        "type": "Point",
        "coordinates": [
          2.1947545,
          41.3976494
        ]
      }
    },
    {
      "type": "Feature",
      "properties": {
        "weight": 1.0
      },
      "geometry": {
        "type": "Point",
        "coordinates": [
          2.1858287,
          41.398234
        ]
      }
    },
    {
      "type": "Feature",
      "properties": {
        "weight": 1.0
      },
      "geometry": {
        "type": "Point",
        "coordinates": [
          2.1999541,
          41.398335
        ]
      }
    },
    {
      "type": "Feature",
      "properties": {
        "weight": 1.0,
        "id": 3626838286,
        "hasDetails": true,
        "name": "Nueva \u00c9poca",
        "amenity": "nightclub",
        "address": "Gran Via de les Corts Catalanes 770, Barcelona"
      },
      "geometry": {
        "type": "Point",
        "coordinates": [
          2.1807324,
          41.3983986
        ]
      }
    },
    {
      "type": "Feature",
      "properties": {
        "weight": 1.0
      },
      "geometry": {
        "type": "Point",
        "coordinates": [
          2.1852359,
          41.3984452
        ]
      }
    },
    {
      "type": "Feature",
      "properties": {
        "weight": 1.0,
        "id": 4123031,
        "hasDetails": true,
        "name": "L'Auditori",
        "amenity": "theatre",
        "wikidata": "Q2713088",
        "wikipedia": "ca:Auditori de Barcelona"
      },
      "geometry": {
        "type": "Point",
        "coordinates": [
          2.1853715,
          41.3985344
        ]
      }
    },
    {
      "type": "Feature",
      "properties": {
        "weight": 1.0,
        "id": 7058390068,
        "hasDetails": true,
        "name": "La Casa de Carlota",
        "amenity": "arts_centre",
        "website": "https://www.lacasadecarlotaandfriends.com/barcelona"
      },
      "geometry": {
        "type": "Point",
        "coordinates": [
          2.1839845,
          41.3986688
        ]
      }
    },
    {
      "type": "Feature",
      "properties": {
        "weight": 1.0
      },
      "geometry": {
        "type": "Point",
        "coordinates": [
          2.1855739,
          41.3986786
        ]
      }
    },
    {
      "type": "Feature",
      "properties": {
        "weight": 1.0
      },
      "geometry": {
        "type": "Point",
        "coordinates": [
          2.1849328,
          41.3989019
        ]
      }
    },
    {
      "type": "Feature",
      "properties": {
        "weight": 1.0,
        "id": 220149029,
        "hasDetails": true,
        "name": "onair",
        "amenity": "arts_centre",
        "website": "https://onairbarcelona.com/"
      },
      "geometry": {
        "type": "Point",
        "coordinates": [
          2.1942617,
          41.3989552
        ]
      }
    },
    {
      "type": "Feature",
      "properties": {
        "weight": 1.0,
        "id": 684764234,
        "hasDetails": true,
        "name": "Sala Vol",
        "amenity": "nightclub",
        "address": "Carrer de Sancho de \u00c1vila 78",
        "website": "https://salavol.com/"
      },
      "geometry": {
        "type": "Point",
        "coordinates": [
          2.1912559,
          41.3993945
        ]
      }
    },
    {
      "type": "Feature",
      "properties": {
        "weight": 1.0,
        "id": 1951810406,
        "hasDetails": true,
        "name": "Cinemes Girona",
        "amenity": "cinema",
        "address": "Carrer de Girona 175, Barcelona",
        "wikidata": "Q108881020",
        "wikipedia": "ca:Cinemes Girona"
      },
      "geometry": {
        "type": "Point",
        "coordinates": [
          2.1646019,
          41.3996133
        ]
      }
    },
    {
      "type": "Feature",
      "properties": {
        "weight": 1.0,
        "id": 8940717,
        "hasDetails": true,
        "name": "Casino l'Alian\u00e7a del Poblenou",
        "amenity": "theatre",
        "address": "Barcelona",
        "website": "https://www.casinoalianca.com/",
        "wikidata": "Q46229138",
        "wikipedia": "ca:Casino l'Alian\u00e7a"
      },
      "geometry": {
        "type": "Point",
        "coordinates": [
          2.2034161,
          41.3998613
        ]
      }
    },
    {
      "type": "Feature",
      "properties": {
        "weight": 1.0,
        "id": 68766768,
        "hasDetails": true,
        "name": "Teatre Nacional de Catalunya",
        "amenity": "theatre",
        "wikidata": "Q1320197",
        "wikipedia": "ca:Teatre Nacional de Catalunya"
      },
      "geometry": {
        "type": "Point",
        "coordinates": [
          2.1857447,
          41.3999503
        ]
      }
    },
    {
      "type": "Feature",
      "properties": {
        "weight": 1.0,
        "id": 3631295923,
        "hasDetails": true,
        "name": "Otto Zutz",
        "amenity": "nightclub",
        "address": "Carrer de Lincoln 15, Barcelona"
      },
      "geometry": {
        "type": "Point",
        "coordinates": [
          2.1503817,
          41.4001094
        ]
      }
    },
    {
      "type": "Feature",
      "properties": {
        "weight": 1.0
      },
      "geometry": {
        "type": "Point",
        "coordinates": [
          2.1208835,
          41.4001988
        ]
      }
    },
    {
      "type": "Feature",
      "properties": {
        "weight": 1.0,
        "id": 68766758,
        "hasDetails": true,
        "name": "Teatre Nacional de Catalunya. Sala Tallers",
        "amenity": "theatre",
        "wikidata": "Q1320197",
        "wikipedia": "ca:Teatre Nacional de Catalunya"
      },
      "geometry": {
        "type": "Point",
        "coordinates": [
          2.1850483,
          41.4004818
        ]
      }
    },
    {
      "type": "Feature",
      "properties": {
        "weight": 1.0,
        "id": 7115213213,
        "hasDetails": true,
        "name": "Artidi",
        "amenity": "arts_centre",
        "address": "Carrer de la Llacuna 50-52"
      },
      "geometry": {
        "type": "Point",
        "coordinates": [
          2.1998516,
          41.4005208
        ]
      }
    },
    {
      "type": "Feature",
      "properties": {
        "weight": 1.0
      },
      "geometry": {
        "type": "Point",
        "coordinates": [
          2.1206713,
          41.40057
        ]
      }
    },
    {
      "type": "Feature",
      "properties": {
        "weight": 1.0
      },
      "geometry": {
        "type": "Point",
        "coordinates": [
          2.2002488,
          41.400993
        ]
      }
    },
    {
      "type": "Feature",
      "properties": {
        "weight": 1.0,
        "id": 11346939001,
        "hasDetails": true,
        "name": "Escola d'Art Joaquim Santal\u00f3",
        "amenity": "arts_centre",
        "address": "Carrer de Monistrol 14, Barcelona",
        "website": "https://joaquimsantalo.com/"
      },
      "geometry": {
        "type": "Point",
        "coordinates": [
          2.1631183,
          41.4011319
        ]
      }
    },
    {
      "type": "Feature",
      "properties": {
        "weight": 1.0,
        "id": 11346926712,
        "hasDetails": true,
        "name": "Casa R\u00edo",
        "amenity": "arts_centre",
        "address": "Carrer de Monistrol 19"
      },
      "geometry": {
        "type": "Point",
        "coordinates": [
          2.163112,
          41.4013013
        ]
      }
    },
    {
      "type": "Feature",
      "properties": {
        "weight": 1.0,
        "id": 11346962542,
        "hasDetails": true,
        "name": "Acad\u00e8mia d'Art La Gr\u00e0cia",
        "amenity": "arts_centre",
        "address": "Carrer d'Igualada 4",
        "website": "https://www.academialagracia.com"
      },
      "geometry": {
        "type": "Point",
        "coordinates": [
          2.1624961,
          41.4013687
        ]
      }
    },
    {
      "type": "Feature",
      "properties": {
        "weight": 1.0,
        "id": 132535607,
        "hasDetails": true,
        "name": "Cinema Bosque",
        "amenity": "cinema",
        "wikidata": "Q17588344",
        "wikipedia": "ca:Cinema Bosque"
      },
      "geometry": {
        "type": "Point",
        "coordinates": [
          2.1516018,
          41.4015373
        ]
      }
    },
    {
      "type": "Feature",
      "properties": {
        "weight": 1.0,
        "id": 4065001015,
        "hasDetails": true,
        "name": "Microteatre Barcelona",
        "amenity": "theatre",
        "address": "Carrer de Bail\u00e8n 194, Barcelona",
        "website": "http://microteatrebarcelona.com"
      },
      "geometry": {
        "type": "Point",
        "coordinates": [
          2.164673,
          41.4015887
        ]
      }
    },
    {
      "type": "Feature",
      "properties": {
        "weight": 1.0,
        "id": 13682127101,
        "hasDetails": true,
        "name": "Niu",
        "amenity": "arts_centre",
        "address": "Carrer dels Almog\u00e0vers 208",
        "website": "https://www.niubcn.com"
      },
      "geometry": {
        "type": "Point",
        "coordinates": [
          2.1963816,
          41.4016576
        ]
      }
    },
    {
      "type": "Feature",
      "properties": {
        "weight": 1.0
      },
      "geometry": {
        "type": "Point",
        "coordinates": [
          2.1877015,
          41.401976
        ]
      }
    },
    {
      "type": "Feature",
      "properties": {
        "weight": 1.0,
        "id": 3913663865,
        "hasDetails": true,
        "name": "Espai Texas",
        "amenity": "cinema",
        "address": "Carrer de Bail\u00e8n 205, Barcelona",
        "website": "https://espaitexas.cat/"
      },
      "geometry": {
        "type": "Point",
        "coordinates": [
          2.1636355,
          41.4020472
        ]
      }
    },
    {
      "type": "Feature",
      "properties": {
        "weight": 1.0
      },
      "geometry": {
        "type": "Point",
        "coordinates": [
          2.1545139,
          41.4024924
        ]
      }
    },
    {
      "type": "Feature",
      "properties": {
        "weight": 1.0,
        "id": 2486105470,
        "hasDetails": true,
        "name": "Lliure",
        "amenity": "theatre",
        "address": "Carrer del Montseny 47, Barcelona",
        "website": "http://www.teatrelliure.com",
        "wikidata": "Q2713554",
        "wikipedia": "ca:Teatre Lliure"
      },
      "geometry": {
        "type": "Point",
        "coordinates": [
          2.1559586,
          41.4027189
        ]
      }
    },
    {
      "type": "Feature",
      "properties": {
        "weight": 1.0,
        "id": 2968921904,
        "hasDetails": true,
        "name": "La Casa de los Contos",
        "amenity": "theatre",
        "address": "Carrer de Ram\u00f3n y Cajal 35",
        "website": "https://www.casadelscontes.com"
      },
      "geometry": {
        "type": "Point",
        "coordinates": [
          2.1588995,
          41.4028862
        ]
      }
    },
    {
      "type": "Feature",
      "properties": {
        "weight": 1.0
      },
      "geometry": {
        "type": "Point",
        "coordinates": [
          2.1459094,
          41.4032061
        ]
      }
    },
    {
      "type": "Feature",
      "properties": {
        "weight": 1.0,
        "id": 2204579800,
        "hasDetails": true,
        "name": "Teatreneu",
        "amenity": "theatre",
        "address": "Carrer de Terol 26, Barcelona",
        "website": "https://www.teatreneu.com/",
        "wikidata": "Q18008300",
        "wikipedia": "ca:Teatreneu"
      },
      "geometry": {
        "type": "Point",
        "coordinates": [
          2.1585587,
          41.4032396
        ]
      }
    },
    {
      "type": "Feature",
      "properties": {
        "weight": 1.0
      },
      "geometry": {
        "type": "Point",
        "coordinates": [
          2.1313605,
          41.4033512
        ]
      }
    },
    {
      "type": "Feature",
      "properties": {
        "weight": 1.0,
        "id": 6038913886,
        "hasDetails": true,
        "name": "Almodobar",
        "amenity": "nightclub",
        "address": "Carrer d'en Grassot 36",
        "website": "https://grupalmodobar.com/almodobar/"
      },
      "geometry": {
        "type": "Point",
        "coordinates": [
          2.1675289,
          41.4036783
        ]
      }
    },
    {
      "type": "Feature",
      "properties": {
        "weight": 1.0,
        "id": 11603200907,
        "hasDetails": true,
        "name": "Youkali Escola de Teatre Musical",
        "amenity": "theatre",
        "address": "Carrer de Ram\u00f3n y Cajal 88"
      },
      "geometry": {
        "type": "Point",
        "coordinates": [
          2.1605474,
          41.403691
        ]
      }
    },
    {
      "type": "Feature",
      "properties": {
        "weight": 1.0
      },
      "geometry": {
        "type": "Point",
        "coordinates": [
          2.1485186,
          41.403783
        ]
      }
    },
    {
      "type": "Feature",
      "properties": {
        "weight": 1.0,
        "id": 82781680,
        "hasDetails": true,
        "name": "Cines Verdi Barcelona",
        "amenity": "cinema",
        "address": "Carrer de Verdi 32",
        "website": "https://www.cines-verdi.com/barcelona/"
      },
      "geometry": {
        "type": "Point",
        "coordinates": [
          2.1568811,
          41.4040146
        ]
      }
    },
    {
      "type": "Feature",
      "properties": {
        "weight": 1.0
      },
      "geometry": {
        "type": "Point",
        "coordinates": [
          2.1999141,
          41.4041081
        ]
      }
    },
    {
      "type": "Feature",
      "properties": {
        "weight": 1.0,
        "id": 7317313,
        "hasDetails": true,
        "name": "Palo Alto Market",
        "amenity": "arts_centre",
        "website": "https://palomarketfest.com/"
      },
      "geometry": {
        "type": "Point",
        "coordinates": [
          2.2105049,
          41.4043439
        ]
      }
    },
    {
      "type": "Feature",
      "properties": {
        "weight": 1.0,
        "id": 82781682,
        "hasDetails": true,
        "name": "Verdi Park Barcelona",
        "amenity": "cinema",
        "address": "Carrer de Torrijos 49",
        "website": "https://www.cines-verdi.com/barcelona/"
      },
      "geometry": {
        "type": "Point",
        "coordinates": [
          2.1576461,
          41.4043891
        ]
      }
    },
    {
      "type": "Feature",
      "properties": {
        "weight": 1.0,
        "id": 8911229,
        "hasDetails": true,
        "name": "Sala Beckett",
        "amenity": "theatre",
        "website": "https://www.salabeckett.cat/",
        "wikidata": "Q11946657",
        "wikipedia": "ca:Sala Beckett"
      },
      "geometry": {
        "type": "Point",
        "coordinates": [
          2.1996057,
          41.4045826
        ]
      }
    },
    {
      "type": "Feature",
      "properties": {
        "weight": 1.0,
        "id": 11267626463,
        "hasDetails": true,
        "name": "Colet",
        "amenity": "arts_centre",
        "address": "Carrer de Bruniquer 19,21"
      },
      "geometry": {
        "type": "Point",
        "coordinates": [
          2.1604437,
          41.4045969
        ]
      }
    },
    {
      "type": "Feature",
      "properties": {
        "weight": 1.0
      },
      "geometry": {
        "type": "Point",
        "coordinates": [
          2.1571547,
          41.4046853
        ]
      }
    },
    {
      "type": "Feature",
      "properties": {
        "weight": 1.0,
        "id": 11360097219,
        "hasDetails": true,
        "name": "Centre Cultural la Farinera del Clot",
        "amenity": "arts_centre",
        "address": "Gran Via de les Corts Catalanes 837",
        "website": "https://www.farinera.org",
        "opening_hours": "Mo-Fr 09:00-22:00; Sa 10:00-14:00,16:00-20:00"
      },
      "geometry": {
        "type": "Point",
        "coordinates": [
          2.1881584,
          41.4051974
        ]
      }
    },
    {
      "type": "Feature",
      "properties": {
        "weight": 1.0,
        "id": 12752316796,
        "hasDetails": true,
        "name": "SusuArte",
        "amenity": "arts_centre",
        "address": "Carrer de Bruniquer 45, Barcelona",
        "website": "https://sites.google.com/view/susuart"
      },
      "geometry": {
        "type": "Point",
        "coordinates": [
          2.1616476,
          41.4053306
        ]
      }
    },
    {
      "type": "Feature",
      "properties": {
        "weight": 1.0,
        "id": 673051320,
        "hasDetails": true,
        "name": "Gl\u00f2ries Multicines",
        "amenity": "cinema",
        "address": "Avinguda Diagonal 208",
        "website": "http://www.grupbalana.com"
      },
      "geometry": {
        "type": "Point",
        "coordinates": [
          2.1928801,
          41.4053714
        ]
      }
    },
    {
      "type": "Feature",
      "properties": {
        "weight": 1.0,
        "id": 3158729112,
        "hasDetails": true,
        "name": "Almo2bar",
        "amenity": "nightclub",
        "address": "Carrer de Bruniquer 59,61, Barcelona",
        "website": "https://grupalmodobar.com/almo2bar/",
        "opening_hours": "23:00-06:00"
      },
      "geometry": {
        "type": "Point",
        "coordinates": [
          2.1621059,
          41.4056064
        ]
      }
    },
    {
      "type": "Feature",
      "properties": {
        "weight": 1.0,
        "id": 13063837526,
        "hasDetails": true,
        "name": "El Teatre m\u00e9s Petit del M\u00f3n",
        "amenity": "theatre",
        "address": "Carrer de l'Encarnaci\u00f3 25",
        "website": "https://www.elteatremespetitdelmon.com/"
      },
      "geometry": {
        "type": "Point",
        "coordinates": [
          2.1590143,
          41.405816
        ]
      }
    },
    {
      "type": "Feature",
      "properties": {
        "weight": 1.0,
        "id": 12626325932,
        "hasDetails": true,
        "name": "Ana Reich Teatro",
        "amenity": "theatre",
        "address": "Carrer de l'Encarnaci\u00f3 24, Barcelona",
        "website": "https://anareichteatro.com/"
      },
      "geometry": {
        "type": "Point",
        "coordinates": [
          2.1593168,
          41.4058465
        ]
      }
    },
    {
      "type": "Feature",
      "properties": {
        "weight": 1.0,
        "id": 6960234548,
        "hasDetails": true,
        "name": "Golem's",
        "amenity": "theatre",
        "address": "Carrer de Sant Llu\u00eds 64",
        "website": "https://www.golems.cat",
        "wikidata": "Q3957238",
        "wikipedia": "ca:Almeria Teatre"
      },
      "geometry": {
        "type": "Point",
        "coordinates": [
          2.1614031,
          41.4060827
        ]
      }
    },
    {
      "type": "Feature",
      "properties": {
        "weight": 1.0,
        "id": 5052323721,
        "hasDetails": true,
        "name": "Continental",
        "amenity": "nightclub",
        "address": "Carrer de la Provid\u00e8ncia 30-32, Barcelona"
      },
      "geometry": {
        "type": "Point",
        "coordinates": [
          2.1564886,
          41.4062568
        ]
      }
    },
    {
      "type": "Feature",
      "properties": {
        "weight": 1.0,
        "id": 10068186773,
        "hasDetails": true,
        "name": "L'aut\u00e8ntica Teatre",
        "amenity": "theatre",
        "address": "Carrer de Mart\u00ed 18",
        "website": "https://www.lautenticateatro.com/",
        "opening_hours": "Mo-Fr 9:00-14:00; Mo-Fr 16:00-21:00; Sa 10:00-18:00; Su: 10:00-13:00"
      },
      "geometry": {
        "type": "Point",
        "coordinates": [
          2.1549408,
          41.4066659
        ]
      }
    },
    {
      "type": "Feature",
      "properties": {
        "weight": 1.0,
        "id": 9284370477,
        "hasDetails": true,
        "name": "Orfe\u00f3 Martinenc",
        "amenity": "arts_centre",
        "website": "http://orfeomartinenc.cat/ca/"
      },
      "geometry": {
        "type": "Point",
        "coordinates": [
          2.1864675,
          41.4068943
        ]
      }
    },
    {
      "type": "Feature",
      "properties": {
        "weight": 1.0,
        "id": 3975749858,
        "hasDetails": true,
        "name": "Llu\u00efsos de Gr\u00e0cia - Teatre",
        "amenity": "arts_centre",
        "address": "Pla\u00e7a del Nord, Barcelona"
      },
      "geometry": {
        "type": "Point",
        "coordinates": [
          2.1553476,
          41.4071788
        ]
      }
    },
    {
      "type": "Feature",
      "properties": {
        "weight": 1.0,
        "id": 2696299447,
        "hasDetails": true,
        "name": "Balmes Multicines",
        "amenity": "cinema",
        "address": "Carrer de Balmes 422 424, Barcelona",
        "opening_hours": "Mo-Su 15:30-00:30"
      },
      "geometry": {
        "type": "Point",
        "coordinates": [
          2.1386401,
          41.4071913
        ]
      }
    },
    {
      "type": "Feature",
      "properties": {
        "weight": 1.0
      },
      "geometry": {
        "type": "Point",
        "coordinates": [
          2.16953,
          41.4074303
        ]
      }
    },
    {
      "type": "Feature",
      "properties": {
        "weight": 1.0,
        "id": 512071908,
        "hasDetails": true,
        "name": "Hangar",
        "amenity": "arts_centre",
        "address": "Carrer d'Emilia Coranty 16",
        "website": "https://hangar.org/",
        "opening_hours": "Mo-Fr 10:00-19:30",
        "wikidata": "Q11925190",
        "wikipedia": "ca:Hangar (Centre de Producci\u00f3 d'Arts Visuals)"
      },
      "geometry": {
        "type": "Point",
        "coordinates": [
          2.1994377,
          41.4086466
        ]
      }
    },
    {
      "type": "Feature",
      "properties": {
        "weight": 1.0,
        "id": 3601249497,
        "hasDetails": true,
        "name": "Phenomena",
        "amenity": "cinema",
        "address": "Carrer de Sant Antoni Maria Claret 168, Barcelona",
        "website": "https://www.phenomena-experience.com/",
        "wikidata": "Q43019884",
        "wikipedia": "ca:Phenomena"
      },
      "geometry": {
        "type": "Point",
        "coordinates": [
          2.1718056,
          41.4090866
        ]
      }
    },
    {
      "type": "Feature",
      "properties": {
        "weight": 1.0
      },
      "geometry": {
        "type": "Point",
        "coordinates": [
          2.1610503,
          41.4091036
        ]
      }
    },
    {
      "type": "Feature",
      "properties": {
        "weight": 1.0,
        "id": 220240437,
        "hasDetails": true,
        "name": "Antiga F\u00e0brica Damm",
        "amenity": "arts_centre",
        "wikidata": "Q20108077",
        "wikipedia": "ca:F\u00e0brica Damm"
      },
      "geometry": {
        "type": "Point",
        "coordinates": [
          2.1777086,
          41.4094694
        ]
      }
    },
    {
      "type": "Feature",
      "properties": {
        "weight": 1.0,
        "id": 11266526927,
        "hasDetails": true,
        "name": "Cinesa",
        "amenity": "cinema",
        "website": "https://www.cinesa.es/cines/diagonal-mar"
      },
      "geometry": {
        "type": "Point",
        "coordinates": [
          2.2165527,
          41.4102196
        ]
      }
    },
    {
      "type": "Feature",
      "properties": {
        "weight": 1.0
      },
      "geometry": {
        "type": "Point",
        "coordinates": [
          2.2030321,
          41.4113209
        ]
      }
    },
    {
      "type": "Feature",
      "properties": {
        "weight": 1.0,
        "id": 7276640057,
        "hasDetails": true,
        "name": "La Central del Circ",
        "amenity": "arts_centre",
        "address": "Moll de la Vela 2, Sant Adri\u00e0 de Bes\u00f2s",
        "website": "https://www.lacentraldelcirc.cat/",
        "wikidata": "Q118382748"
      },
      "geometry": {
        "type": "Point",
        "coordinates": [
          2.2273837,
          41.4114532
        ]
      }
    },
    {
      "type": "Feature",
      "properties": {
        "weight": 1.0,
        "id": 12783732201,
        "hasDetails": true,
        "name": "Mitus Acad\u00e8mia d'Art",
        "amenity": "arts_centre",
        "address": "Avinguda de la Rep\u00fablica Argentina 162",
        "website": "https://www.mitusacademia.com/",
        "opening_hours": "Mo-Fr 10:00-14:00, 16:00-20:00; Sa 10:00-14:00"
      },
      "geometry": {
        "type": "Point",
        "coordinates": [
          2.1425226,
          41.4116576
        ]
      }
    },
    {
      "type": "Feature",
      "properties": {
        "weight": 1.0
      },
      "geometry": {
        "type": "Point",
        "coordinates": [
          2.2032194,
          41.4116957
        ]
      }
    },
    {
      "type": "Feature",
      "properties": {
        "weight": 1.0,
        "id": 13947529901,
        "hasDetails": true,
        "name": "Sala Melmac",
        "amenity": "theatre",
        "address": "Carrer de la Torre V\u00e9lez 35",
        "website": "https://www.salamelmac.com/"
      },
      "geometry": {
        "type": "Point",
        "coordinates": [
          2.1765376,
          41.4151372
        ]
      }
    },
    {
      "type": "Feature",
      "properties": {
        "weight": 1.0,
        "id": 349200308,
        "hasDetails": true,
        "name": "Auditori Sant Mart\u00ed de Proven\u00e7als",
        "amenity": "theatre",
        "website": "http://ccivics.bcn.cat/auditorisantmarti"
      },
      "geometry": {
        "type": "Point",
        "coordinates": [
          2.1991312,
          41.4159549
        ]
      }
    },
    {
      "type": "Feature",
      "properties": {
        "weight": 1.0,
        "id": 13013868502,
        "hasDetails": true,
        "name": "L'Ant\u00e0rtic",
        "amenity": "arts_centre",
        "address": "Passatge dels Garrofers 31"
      },
      "geometry": {
        "type": "Point",
        "coordinates": [
          2.1723293,
          41.4186553
        ]
      }
    },
    {
      "type": "Feature",
      "properties": {
        "weight": 1.0
      },
      "geometry": {
        "type": "Point",
        "coordinates": [
          2.19011,
          41.4200446
        ]
      }
    },
    {
      "type": "Feature",
      "properties": {
        "weight": 1.0
      },
      "geometry": {
        "type": "Point",
        "coordinates": [
          2.1899128,
          41.4200893
        ]
      }
    },
    {
      "type": "Feature",
      "properties": {
        "weight": 1.0,
        "id": 4412734192,
        "hasDetails": true,
        "name": "Piramid\u00f3n",
        "amenity": "arts_centre",
        "address": "Concili de Trento 313",
        "wikidata": "Q18696722",
        "wikipedia": "ca:Piramid\u00f3n"
      },
      "geometry": {
        "type": "Point",
        "coordinates": [
          2.2089872,
          41.4227222
        ]
      }
    },
    {
      "type": "Feature",
      "properties": {
        "weight": 1.0
      },
      "geometry": {
        "type": "Point",
        "coordinates": [
          2.1194501,
          41.4244728
        ]
      }
    },
    {
      "type": "Feature",
      "properties": {
        "weight": 1.0
      },
      "geometry": {
        "type": "Point",
        "coordinates": [
          2.1929474,
          41.4245133
        ]
      }
    },
    {
      "type": "Feature",
      "properties": {
        "weight": 1.0,
        "id": 7431327,
        "hasDetails": true,
        "name": "Sant Andreu Teatre",
        "amenity": "theatre",
        "address": "Carrer de Neop\u00e0tria 50, Barcelona",
        "website": "https://www.sat-teatre.cat/",
        "wikidata": "Q11946900",
        "wikipedia": "ca:Sant Andreu Teatre"
      },
      "geometry": {
        "type": "Point",
        "coordinates": [
          2.1884547,
          41.430476
        ]
      }
    },
    {
      "type": "Feature",
      "properties": {
        "weight": 1.0
      },
      "geometry": {
        "type": "Point",
        "coordinates": [
          2.1595339,
          41.4308751
        ]
      }
    },
    {
      "type": "Feature",
      "properties": {
        "weight": 1.0,
        "id": 5454347100,
        "hasDetails": true,
        "name": "Fabra i Coats F\u00e0brica de Creaci\u00f3",
        "amenity": "arts_centre",
        "address": "Carrer de Sant Adri\u00e0 20",
        "website": "https://barcelona.cat/fabraicoats",
        "opening_hours": "Mo-Fr 09:00-22:00; Sa 10:00-21:00; Su 11:00-21:00"
      },
      "geometry": {
        "type": "Point",
        "coordinates": [
          2.1910536,
          41.4329607
        ]
      }
    },
    {
      "type": "Feature",
      "properties": {
        "weight": 1.0,
        "id": 5454342545,
        "hasDetails": true,
        "name": "Centre d'Art Contemporani Fabra i Coats",
        "amenity": "arts_centre",
        "website": "https://ajuntament.barcelona.cat/centredart/ca/"
      },
      "geometry": {
        "type": "Point",
        "coordinates": [
          2.19107,
          41.4331289
        ]
      }
    },
    {
      "type": "Feature",
      "properties": {
        "weight": 1.0
      },
      "geometry": {
        "type": "Point",
        "coordinates": [
          2.2173849,
          41.4345407
        ]
      }
    },
    {
      "type": "Feature",
      "properties": {
        "weight": 1.0
      },
      "geometry": {
        "type": "Point",
        "coordinates": [
          2.1805915,
          41.4354074
        ]
      }
    },
    {
      "type": "Feature",
      "properties": {
        "weight": 1.0,
        "id": 414079440,
        "hasDetails": true,
        "name": "Blas Infante",
        "amenity": "theatre",
        "address": "Carrer d'Andr\u00e9s Segovia 43-45, Badalona",
        "wikidata": "Q20103795",
        "wikipedia": "ca:Teatre Blas Infante"
      },
      "geometry": {
        "type": "Point",
        "coordinates": [
          2.2229207,
          41.4377005
        ]
      }
    },
    {
      "type": "Feature",
      "properties": {
        "weight": 1.0
      },
      "geometry": {
        "type": "Point",
        "coordinates": [
          2.1984101,
          41.4393801
        ]
      }
    },
    {
      "type": "Feature",
      "properties": {
        "weight": 1.0
      },
      "geometry": {
        "type": "Point",
        "coordinates": [
          2.2222476,
          41.4412484
        ]
      }
    },
    {
      "type": "Feature",
      "properties": {
        "weight": 1.0,
        "id": 6430305257,
        "hasDetails": true,
        "name": "Rock'N'Trini",
        "amenity": "nightclub",
        "address": "Via Fav\u00e8ncia 441, Barcelona"
      },
      "geometry": {
        "type": "Point",
        "coordinates": [
          2.1902067,
          41.4469745
        ]
      }
    },
    {
      "type": "Feature",
      "properties": {
        "weight": 1.0,
        "id": 2336827547,
        "hasDetails": true,
        "name": "Ateneu Popular de Nou Barris",
        "amenity": "theatre",
        "address": "Carrer Portlligat 11-15",
        "website": "http://www.ateneu9b.net",
        "wikidata": "Q21478774",
        "wikipedia": "ca:Ateneu Popular de Nou Barris"
      },